Lfd. Nummer,Name des Flughafens,Ort,Land,IATA,ICAO,Latitude,Longitude,Altitude,Zeitzone,DST,Zeitzonen-Datenbank,geo_punkt,
8703,Barberton Airport,Barberton,South Africa,0,FABR,-25.716869,30.97518,686,2,U,Africa/Johannesburg,-25.716869,30.97518
330,Jena-Schöngleina Airport,Jena,Deutschland,0,EDBJ,50.91527939,11.71444416,380,1,E,Europe/Berlin,50.91527939,11.71444416
13493,COLNIZA Airport,COLNIZA,Brazil,0,SIXZ,-9.446111111,-59.19916667,168,-4,S,0,-9.446111111,-59.19916667
1165,Kigali International Airport,Kigali,Rwanda,KGL,HRYR,-1.968629956,30.13949966,1481,2,U,Africa/Kigali,-1.968629956,30.13949966
10723,Elsenthal Grafe Airport,Elsenthal,Deutschland,0,EDNF,48.82249832,13.36750031,432,1,E,0,48.82249832,13.36750031
320,Eisenhüttenstadt Airport,Eisenhuettenstadt,Deutschland,0,EDAE,52.195856,14.58753,44,1,E,Europe/Berlin,52.195856,14.58753
8051,Lake Hood Seaplane Base,Anchorage,United States,0,PALH,61.18000031,-149.9720001,22,-9,A,America/Anchorage,61.18000031,-149.9720001
317,Bautzen Airport,Bautzen,Deutschland,0,EDAB,51.19361115,14.51972198,173,1,E,Europe/Berlin,51.19361115,14.51972198
663,Tromsø Airport,Tromso,Norway,TOS,ENTC,69.6832962,18.91889954,9,1,E,Europe/Oslo,69.6832962,18.91889954
994,Seychelles International Airport,Mahe,Seychelles,SEZ,FSIA,-4.674339771,55.52180099,3,4,U,Indian/Mahe,-4.674339771,55.52180099
13668,JARU Airport,JARU,Brazil,0,SIDG,-10.42361111,-62.5175,168,-4,S,0,-10.42361111,-62.5175
1345,"Châteauroux-Déols ""Marcel Dassault"" Airport",Chateauroux,France,CHR,LFLX,46.86027778,1.7211111,161,1,E,Europe/Paris,46.86027778,1.7211111
280,Diori Hamani International Airport,Niamey,Niger,NIM,DRRN,13.48149967,2.183609962,223,1,N,Africa/Niamey,13.48149967,2.183609962
2241,Doha International Airport,Doha,Qatar,0,OTBD,25.261101,51.565102,11,3,U,Asia/Qatar,25.261101,51.565102
2651,Cerro Moreno Airport,Antofagasta,Chile,ANF,SCFA,-23.44449997,-70.44509888,139,-4,S,America/Santiago,-23.44449997,-70.44509888
3076,Dhaka / Hazrat Shahjalal International Airport,Dhaka,Bangladesh,DAC,VGZR,23.843347,90.397783,9,6,U,Asia/Dhaka,23.843347,90.397783
8302,Lagrange Callaway Airport,LaGrange,United States,LGC,KLGC,33.00889969,-85.07260132,211,-5,A,America/New_York,33.00889969,-85.07260132
7685,Koszalin Zegrze Pomorskie Air Base,Koszalin,Poland,OSZ,EPKO,54.0425,16.2656,76,1,E,Europe/Warsaw,54.0425,16.2656
7903,Marl-Loemühle Airport,Recklinghausen,Deutschland,0,EDLM,51.647202,7.16333,73,1,U,Europe/Berlin,51.647202,7.16333
8090,Ganderkesee Atlas Airfield Airport,Ganderkesee,Deutschland,0,EDWQ,53.03610992,8.505556107,29,1,E,Europe/Berlin,53.03610992,8.505556107
1287,Millau-Larzac Airport,Millau,France,0,LFCM,43.98929977,3.183000088,794,1,E,Europe/Paris,43.98929977,3.183000088
8432,Gera-Leumnitz Airport,Gera,Deutschland,0,EDAJ,50.88166809,12.13583279,309,1,E,Europe/Berlin,50.88166809,12.13583279
8620,Karlsruhe-Forchheim Airport,Karlsruhe,Deutschland,0,EDTK,48.9843,8.3355,116,1,E,Europe/Berlin,48.9843,8.3355
8850,Williamson Sodus Airport,Williamson,United States,0,KSDC,43.23469925,-77.1210022,129,-5,A,America/New_York,43.23469925,-77.1210022
4179,Rukumkot Airport,Rukumkot,Nepal,RUK,VNRK,28.62700081,82.19499969,762,5.75,N,Asia/Katmandu,28.62700081,82.19499969
3443,Grider Field,Pine Bluff,United States,PBF,KPBF,34.17309952,-91.93560028,63,-6,A,America/Chicago,34.17309952,-91.93560028
13499,Mostardas Airport,SANTO ANTONIO DO MATUPI,Brazil,0,SSMT,-7.908611111,-61.56277778,168,-4,S,0,-7.908611111,-61.56277778
1020,Ndjili International Airport,Kinshasa,Congo (Kinshasa),FIH,FZAA,-4.385749817,15.44460011,313,1,N,Africa/Kinshasa,-4.385749817,15.44460011
3125,Tribhuvan International Airport,Kathmandu,Nepal,KTM,VNKT,27.69659996,85.35910034,1338,5.75,N,Asia/Katmandu,27.69659996,85.35910034
8092,Damme Airport,Damme,Deutschland,0,EDWC,52.48749924,8.185556412,46,1,E,Europe/Berlin,52.48749924,8.185556412
7732,Lakeland Linder Regional Airport,Lakeland,United States,LAL,KLAL,27.98889923,-82.01860046,43,-5,A,America/New_York,27.98889923,-82.01860046
3758,El Centro Naval Air Facility,El Centro,United States,NJK,KNJK,32.829201,-115.671997,-13,-8,A,America/Los_Angeles,32.829201,-115.671997
10131,Donaldson Center Airport,Greenville,United States,GDC,KGYH,34.75830078,-82.37640381,291,-4,A,0,34.75830078,-82.37640381
13683,Fazenda Sao Nicolau Airport,COTRIGUACU,Brazil,0,SWQT,-9.904443779,-58.58216794,225,0,U,0,-9.904443779,-58.58216794
1001,Joshua Mqabuko Nkomo International Airport,Bulawayo,Zimbabwe,BUQ,FVBU,-20.01740074,28.61790085,1329,2,U,Africa/Harare,-20.01740074,28.61790085
582,Maastricht Aachen Airport,Maastricht,Netherlands,MST,EHBK,50.9117012,5.770140171,114,1,E,Europe/Amsterdam,50.9117012,5.770140171
2105,Abumusa Island Airport,Abumusa I.,Iran,AEU,OIBA,25.8757,55.03300095,7,3.5,E,Asia/Tehran,25.8757,55.03300095
11179,Maricá Airport,Marica,Brazil,0,SDMC,-22.91950035,-42.83089828,4,-3,S,0,-22.91950035,-42.83089828
2050,Kabul International Airport,Kabul,Afghanistan,KBL,OAKB,34.5658989,69.21230316,1791,4.5,U,Asia/Kabul,34.5658989,69.21230316
13268,Diass-Thies Blaise Diagne International Airport,Diass,Senegal,DSS,GOBD,14.67,-17.07333333,88,0,N,0,14.67,-17.07333333
11933,Cochrane Airport,Cochrane,Chile,LGR,SCHR,-47.24380112,-72.58840179,196,0,0,0,-47.24380112,-72.58840179
3485,Anniston Metropolitan Airport,Anniston,United States,ANB,KANB,33.58819962,-85.85810089,187,-6,A,America/Chicago,33.58819962,-85.85810089
8641,Marco Island Airport,Marco Island Airport,United States,MRK,KMKY,25.99500084,-81.67250061,2,-5,A,America/New_York,25.99500084,-81.67250061
893,Sir Seewoosagur Ramgoolam International Airport,Plaisance,Mauritius,MRU,FIMP,-20.43020058,57.68360138,57,4,N,Indian/Mauritius,-20.43020058,57.68360138
1005,Harare International Airport,Harare,Zimbabwe,HRE,FVHA,-17.93180084,31.09280014,1489,2,U,Africa/Harare,-17.93180084,31.09280014
1044,Senou Airport,Bamako,Mali,BKO,GABS,12.53349972,-7.949940205,380,0,N,Africa/Bamako,12.53349972,-7.949940205
1364,Mende-Brenoux Airport,Mende,France,MEN,LFNB,44.5021019,3.532819986,1025,1,E,Europe/Paris,44.5021019,3.532819986
246,Ouagadougou Airport,Ouagadougou,Burkina Faso,OUA,DFFD,12.35319996,-1.512420058,316,0,N,Africa/Ouagadougou,12.35319996,-1.512420058
8623,Château-Thierry - Belleau Airport,Chateau-Thierry,France,0,LFFH,49.06719971,3.356940031,222,1,E,Europe/Paris,49.06719971,3.356940031
881,Sir Seretse Khama International Airport,Gaberone,Botswana,GBE,FBSK,-24.55520058,25.91819954,1005,2,U,Africa/Gaborone,-24.55520058,25.91819954
691,Gothenburg City Airport,Gothenborg,Sweden,GSE,ESGP,57.77470016,11.87040043,18,1,E,Europe/Stockholm,57.77470016,11.87040043
7834,Hoogeveen Airport,Hoogeveen,Netherlands,0,EHHO,52.73080063,6.516109943,12,1,E,Europe/Amsterdam,52.73080063,6.516109943
1309,Dole-Tavaux Airport,Dole,France,DLE,LFGJ,47.042686,5.435061,197,1,E,Europe/Paris,47.042686,5.435061
8868,Spa (la Sauvenière) Airport,Spa,Belgium,0,EBSP,50.48249817,5.910299778,482,1,E,Europe/Brussels,50.48249817,5.910299778
11791,Cewice Military Airport,L?bork,Poland,0,EPCE,54.41600037,17.76329994,151,0,0,0,54.41600037,17.76329994
12007,Fedotovo Naval Air Base,Kipelovo,Russia,0,XLWF,59.188301,39.123299,175,0,0,0,59.188301,39.123299
11143,Conselheiro Lafaiete Airport,Conselheiro Lafaiete,Brazil,QDF,SNKF,-20.73859978,-43.79740143,1060,-3,S,0,-20.73859978,-43.79740143
1053,La Palma Airport,Santa Cruz De La Palma,Spain,SPC,GCLA,28.62649918,-17.75559998,33,0,E,Atlantic/Canary,28.62649918,-17.75559998
4303,Enghien Moisselles Airport,Enghien-moisselles,France,0,LFFE,49.04639816,2.353060007,102,1,E,Europe/Paris,49.04639816,2.353060007
5836,Guerrero Negro Airport,Guerrero Negro,Mexico,GUB,MMGR,28.02610016,-114.0240021,18,-8,S,America/Tijuana,28.02610016,-114.0240021
3872,Casper-Natrona County International Airport,Casper,United States,CPR,KCPR,42.90800095,-106.4639969,1631,-7,A,America/Denver,42.90800095,-106.4639969
5913,North West Santo Airport,Olpoi,Vanuatu,0,NVSZ,-14.88169956,166.5579987,15,11,U,Pacific/Efate,-14.88169956,166.5579987
1102,Amílcar Cabral International Airport,Amilcar Cabral,Cape Verde,SID,GVAC,16.74139977,-22.94939995,54,-1,U,Atlantic/Cape_Verde,16.74139977,-22.94939995
1363,Lézignan-Corbières Airport,Lezignan-corbieres,France,0,LFMZ,43.17580032,2.73416996,63,1,E,Europe/Paris,43.17580032,2.73416996
8577,North Sea,Forties Alpha,United Kingdom,0,FA08,57.7168,-1.0168,0,0,U,America/New_York,57.7168,-1.0168
2976,Ashgabat Airport,Ashkhabad,Turkmenistan,ASB,UTAA,37.98680115,58.36100006,211,5,U,Asia/Ashgabat,37.98680115,58.36100006
3887,Andi Jemma Airport,Masamba,Indonesia,MXB,WAWM,-2.558039904,120.3239975,50,8,N,Asia/Makassar,-2.558039904,120.3239975
4075,Faa'a International Airport,Papeete,French Polynesia,PPT,NTAA,-17.55369949,-149.6069946,2,-10,U,Pacific/Tahiti,-17.55369949,-149.6069946
8119,Bad Neuenahr-Ahrweiler Airport,Bad Neuenahr,Deutschland,0,EDRA,50.5577774,7.136388779,205,1,E,Europe/Berlin,50.5577774,7.136388779
951,Quatro de Fevereiro Airport,Luanda,Angola,LAD,FNLU,-8.858369827,13.23120022,74,1,N,Africa/Luanda,-8.858369827,13.23120022
979,Maputo Airport,Maputo,Mozambique,MPM,FQMA,-25.92079926,32.57260132,44,2,U,Africa/Maputo,-25.92079926,32.57260132
1767,La Aurora Airport,Guatemala City,Guatemala,GUA,MGGT,14.58329964,-90.52749634,1509,-6,U,America/Guatemala,14.58329964,-90.52749634
3957,S. Darius and S. Gir?nas Airport,Kaunas,Lithuania,0,EYKS,54.87979889,23.88150024,75,2,E,Europe/Vilnius,54.87979889,23.88150024
6482,Concord Regional Airport,Concord,United States,USA,KJQF,35.387798,-80.709099,215,-5,A,America/New_York,35.387798,-80.709099
9533,Cowra Airport,Chatsworth,United States,CWT,YCWR,-33.84469986,148.6490021,294,10,A,Australia/Sydney,-33.84469986,148.6490021
11332,Sahiwal Airport,Sindh,Pakistan,SWN,OPSW,31.88944435,72.39167023,174,5,U,0,31.88944435,72.39167023
918,Ivato Airport,Antananarivo,Madagascar,TNR,FMMI,-18.7968998,47.47880173,1279,3,U,Indian/Antananarivo,-18.7968998,47.47880173
770,Hohn Airport,Hohn,Deutschland,0,ETNH,54.31219864,9.538169861,12,1,E,Europe/Berlin,54.31219864,9.538169861
2387,Ishigaki Airport,Ishigaki,Japan,ISG,ROIG,24.34449959,124.1869965,28,9,U,Asia/Tokyo,24.34449959,124.1869965
3244,Sentani Airport,Jayapura,Indonesia,DJJ,WAJJ,-2.576950073,140.5160065,88,9,N,Asia/Jayapura,-2.576950073,140.5160065
3704,Mc Kellar Sipes Regional Airport,Jackson,United States,MKL,KMKL,35.59989929,-88.91560364,132,-6,A,America/Chicago,35.59989929,-88.91560364
13597,Primavera do Leste Airport,PRIMAVERA DO LESTE,Brazil,0,SWPY,-15.56277778,-54.32972222,655,-4,S,0,-15.56277778,-54.32972222
13669,Machadinho Airport,MACHADINHO D'OESTE,Brazil,0,SIMC,-9.403611111,-62.00805556,137,-4,S,0,-9.403611111,-62.00805556
390,Koblenz-Winningen Airport,Koblenz,Deutschland,0,EDRK,50.325558,7.528611,195,1,E,Europe/Berlin,50.325558,7.528611
177,North Bay Airport,North Bay,Canada,YYB,CYYB,46.36360168,-79.42279816,370,-5,A,America/Toronto,46.36360168,-79.42279816
377,Mindelheim-Mattsies Airport,Mindelheim,Deutschland,0,EDMN,48.10694504,10.52499962,566,1,E,Europe/Berlin,48.10694504,10.52499962
6091,Chulman Airport,Neryungri,Russia,0,UELL,56.91389847,124.9140015,857,9,N,Asia/Yakutsk,56.91389847,124.9140015
8752,Nusawiru Airport,Nusawiru,Indonesia,0,WI1A,-7.720389843,108.4899979,5,7,N,Asia/Jakarta,-7.720389843,108.4899979
8508,Winter Haven Municipal Airport - Gilbert Field,Winter Haven,United States,GIF,KGIF,28.06290054,-81.75330353,44,-5,A,America/New_York,28.06290054,-81.75330353
9418,Auburn Opelika Robert G. Pitts Airport,Auburn,United States,AUO,KAUO,32.61510086,-85.43399811,237,-6,A,America/Chicago,32.61510086,-85.43399811
603,Shannon Airport,Shannon,Ireland,SNN,EINN,52.70199966,-8.924819946,14,0,E,Europe/Dublin,52.70199966,-8.924819946
1063,Roberts International Airport,Monrovia,Liberia,ROB,GLRB,6.233789921,-10.36229992,9,0,N,Africa/Monrovia,6.233789921,-10.36229992
8178,Seppe Airport,Bosschenhoofd,Netherlands,0,EHSE,51.55469894,4.552499771,9,1,E,Europe/Amsterdam,51.55469894,4.552499771
319,Dessau Airport,Dessau,Deutschland,0,EDAD,51.83169354,12.19096184,57,1,E,Europe/Berlin,51.83169354,12.19096184
700,Arvika Airport,Arvika,Sweden,0,ESKV,59.67589951,12.63939953,72,1,E,Europe/Stockholm,59.67589951,12.63939953
644,Oslo Gardermoen Airport,Oslo,Norway,OSL,ENGM,60.19390106,11.10039997,208,1,E,Europe/Oslo,60.19390106,11.10039997
7426,Meru Mulika Airport,Meru National Park,Kenya,0,HKMK,0.229567,38.171412,680,3,U,Africa/Nairobi,0.229567,38.171412
8746,Moma Airport,Honuu,Russia,MQJ,UEMA,66.450859,143.261551,200,11,N,Asia/Srednekolymsk,66.450859,143.261551
8872,Suarlée Airport,Namur,Belgium,0,EBNM,50.487999,4.76892,181,1,E,Europe/Brussels,50.487999,4.76892
8319,Foothills Regional Airport,Morganton,United States,0,KMRN,35.820202,-81.611397,387,-5,A,America/New_York,35.820202,-81.611397
13595,EletroPrimavera Airport,PRIMAVERA D'OESTE,Brazil,0,SIEL,-11.90166667,-61.22888889,228,-4,S,0,-11.90166667,-61.22888889
312,Limburg Regional Airport,Sint-truiden,Belgium,0,EBST,50.79190063,5.20167017,75,1,E,Europe/Brussels,50.79190063,5.20167017
1187,Entebbe International Airport,Entebbe,Uganda,EBB,HUEN,0.042385999,32.44350052,1153,3,U,Africa/Kampala,0.042385999,32.44350052
11110,Pocono Mountains Municipal Airport,Mount Pocono,United States,0,KMPO,41.13750076,-75.37889862,584,-5,A,0,41.13750076,-75.37889862
528,RAF Woodvale,Woodvale,United Kingdom,0,EGOW,53.58160019,-3.055520058,11,0,E,Europe/London,53.58160019,-3.055520058
67,Dryden Regional Airport,Dryden,Canada,YHD,CYHD,49.83169937,-92.74420166,413,-6,A,America/Winnipeg,49.83169937,-92.74420166
334,Anklam Airport,Anklam,Deutschland,0,EDCA,53.83277893,13.66861057,5,1,E,Europe/Berlin,53.83277893,13.66861057
4085,Yinchuan Airport,Yinchuan,China,INC,ZLIC,38.481899,106.009003,0,8,U,Asia/Shanghai,38.481899,106.009003
4173,Jomsom Airport,Jomsom,Nepal,JMO,VNJS,28.780426,83.723,2743,5.75,N,Asia/Katmandu,28.780426,83.723
8515,Aiken Municipal Airport,Aiken,United States,AIK,KAIK,33.6493988,-81.68499756,161,-5,A,America/New_York,33.6493988,-81.68499756
1059,Lungi International Airport,Freetown,Sierra Leone,FNA,GFLL,8.616439819,-13.19550037,26,0,N,Africa/Freetown,8.616439819,-13.19550037
1278,Toul Rosières Air Base,Brive,France,BVE,LFSL,48.780001,5.980003,285,1,E,Europe/Paris,48.780001,5.980003
3011,Kandla Airport,Kandla,India,IXY,VAKE,23.11269951,70.10030365,29,5.5,N,Asia/Calcutta,23.11269951,70.10030365
8954,São Carlos Airport,Sao Carlos,Brazil,QSC,SDSC,-21.87540054,-47.90370178,807,-3,S,America/Sao_Paulo,-21.87540054,-47.90370178
3795,Muir Army Air Field (Fort Indiantown Gap) Airport,Muir,United States,0,KMUI,40.43479919,-76.56939697,149,-5,A,America/New_York,40.43479919,-76.56939697
8182,Flagler County Airport,Flagler,United States,0,KXFL,29.4673996,-81.20629883,10,-5,A,America/New_York,29.4673996,-81.20629883
7728,Hilversum Airport,Hilversum,Netherlands,0,EHHV,52.19189835,5.146940231,1,1,E,Europe/Amsterdam,52.19189835,5.146940231
7146,Metlakatla Seaplane Base,Metakatla,United States,0,PAMM,55.13100052,-131.5780029,0,-9,A,America/Anchorage,55.13100052,-131.5780029
392,Speyer Airport,Speyer,Deutschland,0,EDRY,49.304722,8.451389,95,1,E,Europe/Berlin,49.304722,8.451389
7892,Strasbourg Neuhof Airport,Strasbourg Neudorf,France,0,LFGC,48.5544014,7.778059959,139,1,E,Europe/Paris,48.5544014,7.778059959
7855,Roitzschjora Airport,Roitzschjora,Deutschland,0,EDAW,51.57777786,12.49444389,88,1,U,Europe/Berlin,51.57777786,12.49444389
7837,Ameland Airport,Ameland,Netherlands,0,EHAL,53.4516983,5.677219868,3,1,E,Europe/Amsterdam,53.4516983,5.677219868
8103,Brilon/Hochsauerlandkreis Airport,Brilon,Deutschland,0,EDKO,51.40250015,8.641667366,460,1,E,Europe/Berlin,51.40250015,8.641667366
7730,Texel Airport,Texel,Netherlands,0,EHTX,53.11529922,4.833610058,1,1,E,Europe/Amsterdam,53.11529922,4.833610058
11243,Montauk Airport,Montauk,United States,0,KMTP,41.07649994,-71.92079926,2,-4,A,0,41.07649994,-71.92079926
13497,Fazenda Mequens Airport,ALTA FLORESTA D'OESTE,Brazil,0,SJTF,-13.0625,-62.25944444,168,-4,S,0,-13.0625,-62.25944444
13550,Jask Airport,Jask,Iran,0,OIZJ,25.65360069,57.79930115,6,3.5,E,0,25.65360069,57.79930115
999,N'Djamena International Airport,N'djamena,Chad,NDJ,FTTJ,12.13370037,15.0340004,295,1,N,Africa/Ndjamena,12.13370037,15.0340004
759,Mendig Airport,Mendig,Deutschland,0,ETHM,50.36600113,7.315330029,182,1,E,Europe/Berlin,50.36600113,7.315330029
6450,Tannheim Airport,Tannheim,Deutschland,0,EDMT,48.00999832,10.09861088,580,1,E,Europe/Berlin,48.00999832,10.09861088
375,Biberach a.d. Riß Airport,Biberach,Deutschland,0,EDMB,48.11111069,9.762778282,580,1,E,Europe/Berlin,48.11111069,9.762778282
1833,Puerto Peñasco International Airport,Punta Penasco,Mexico,PPE,MMPE,31.356202,-113.525677,9,-7,S,America/Hermosillo,31.356202,-113.525677
1701,Atatürk International Airport,Istanbul,Turkey,IST,LTBA,40.976898,28.8146,50,3,E,Europe/Istanbul,40.976898,28.8146
3380,Chinggis Khaan International Airport,Ulan Bator,Mongolia,ULN,ZMUB,47.8431015,106.7669983,1330,8,U,Asia/Ulaanbaatar,47.8431015,106.7669983
6757,Burgos Airport,Burgos,Spain,RGS,LEBG,42.35760117,-3.620759964,898,1,E,Europe/Madrid,42.35760117,-3.620759964
13500,CONSELVAN Airport,CONSELVAN,Brazil,0,SCSN,-9.936944444,-59.90916667,75,-4,S,0,-9.936944444,-59.90916667
13720,Vilar Da Luz Airport,Maia,Portugal,0,LPVL,41.27729,-8.516207,0,0,0,0,41.27729,-8.516207
581,Budel Airport,Weert,Netherlands,0,EHBD,51.25529861,5.601389885,35,1,E,Europe/Amsterdam,51.25529861,5.601389885
1623,Covilhã Airport,Covilha,Portugal,0,LPCV,40.264801,-7.47996,479,0,E,Europe/Lisbon,40.264801,-7.47996
2461,Domingo Faustino Sarmiento Airport,San Julian,Argentina,UAQ,SANU,-31.571501,-68.418198,597,-3,N,America/Argentina/San_Juan,-31.571501,-68.418198
2120,Kashan Airport,Kashan,Iran,0,OIFK,33.89530182,51.57699966,1056,3.5,E,Asia/Tehran,33.89530182,51.57699966
8435,Kasimovo Airfield,Saint-Petersburg,Russia,0,XLLN,60.19829941,30.33499908,70,3,N,Europe/Moscow,60.19829941,30.33499908
1634,Pico Airport,Pico,Portugal,PIX,LPPI,38.5542984,-28.44129944,33,-1,E,Atlantic/Azores,38.5542984,-28.44129944
3603,Terre Haute International Hulman Field,Terre Haute,United States,HUF,KHUF,39.45149994,-87.30760193,180,-5,A,America/New_York,39.45149994,-87.30760193
3552,Andrews Air Force Base,Camp Springs,United States,ADW,KADW,38.810799,-76.866997,85,-5,A,America/New_York,38.810799,-76.866997
3641,Theodore Francis Green State Airport,Providence,United States,PVD,KPVD,41.73260117,-71.42040253,17,-5,A,America/New_York,41.73260117,-71.42040253
9891,Muara Bungo Airport,Muara Bungo,Indonesia,0,WIPI,-1.1278,102.135,65,7,N,0,-1.1278,102.135
11355,Aropa Airport,Kieta,Papua New Guinea,KIE,AYKT,-6.305417,155.728139,6,10,U,0,-6.305417,155.728139
2771,Viru Viru International Airport,Santa Cruz,Bolivia,VVI,SLVR,-17.64480019,-63.13539886,373,-4,U,America/La_Paz,-17.64480019,-63.13539886
1541,Forlì Airport,Forli,Italy,FRL,LIPK,44.194801,12.0701,30,1,E,Europe/Rome,44.194801,12.0701
1542,Ghedi Air Base,Ghedi,Italy,0,LIPL,45.432201,10.2677,101,1,E,Europe/Rome,45.432201,10.2677
1546,Federico Fellini International Airport,Rimini,Italy,RMI,LIPR,44.020302,12.6117,12,1,E,Europe/Rome,44.020302,12.6117
1548,Vicenza Airport,Vicenza,Italy,VIC,LIPT,45.573399,11.5295,39,1,E,Europe/Rome,45.573399,11.5295
1550,Verona Villafranca Airport,Villafranca,Italy,VRN,LIPX,45.395699,10.8885,73,1,E,Europe/Rome,45.395699,10.8885
1552,Siena-Ampugnano Airport,Siena,Italy,SAY,LIQS,43.256302,11.255,193,1,E,Europe/Rome,43.256302,11.255
1554,Pratica Di Mare Air Base,Pratica Di Mare,Italy,0,LIRE,41.654499,12.4452,12,1,E,Europe/Rome,41.654499,12.4452
1565,Urbe Airport,Rome,Italy,0,LIRU,41.9519,12.4989,17,1,E,Europe/Rome,41.9519,12.4989
1566,Viterbo Airport,Viterbo,Italy,0,LIRV,42.430199,12.0642,302,1,E,Europe/Rome,42.430199,12.0642
1567,Perugia San Francesco d'Assisi – Umbria International Airport,Perugia,Italy,PEG,LIRZ,43.095901,12.5132,212,1,E,Europe/Rome,43.095901,12.5132
1569,Ljubljana Jože Pu?nik Airport,Ljubljana,Slovenia,LJU,LJLJ,46.223701,14.4576,388,1,E,Europe/Ljubljana,46.223701,14.4576
1573,?eské Bud?jovice Airport,Ceske Budejovice,Czech Republic,0,LKCS,48.94639969,14.42749977,432,1,E,Europe/Prague,48.94639969,14.42749977
1574,?áslav Air Base,Caslav,Czech Republic,0,LKCV,49.93970108,15.3817997,242,1,E,Europe/Prague,49.93970108,15.3817997
1589,Vodochody Airport,Vodochody,Czech Republic,VOD,LKVO,50.216599,14.3958,280,1,E,Europe/Prague,50.216599,14.3958
1590,Ben Gurion International Airport,Tel-aviv,Israel,TLV,LLBG,32.01139832,34.88669968,41,2,E,Asia/Jerusalem,32.01139832,34.88669968
1591,Beersheba (Teyman) Airport,Beer-sheba,Israel,BEV,LLBS,31.28700066,34.72299957,200,2,E,Asia/Jerusalem,31.28700066,34.72299957
1594,Eilat Airport,Elat,Israel,ETH,LLET,29.56130028,34.96009827,13,2,E,Asia/Jerusalem,29.56130028,34.96009827
1595,Ein Yahav Airfield,Eyn-yahav,Israel,EIY,LLEY,30.62170029,35.20330048,-50,2,E,Asia/Jerusalem,30.62170029,35.20330048
1596,Haifa International Airport,Haifa,Israel,HFA,LLHA,32.80939865,35.04309845,9,2,E,Asia/Jerusalem,32.80939865,35.04309845
1601,Nevatim Air Base,Nevatim,Israel,VTM,LLNV,31.20829964,35.01229858,405,2,E,Asia/Jerusalem,31.20829964,35.01229858
1604,Ramon Air Base,Ramon,Israel,MIP,LLRM,30.77610016,34.66669846,648,2,E,Asia/Jerusalem,30.77610016,34.66669846
1610,Innsbruck Airport,Innsbruck,Austria,INN,LOWI,47.260201,11.344,581,1,E,Europe/Vienna,47.260201,11.344
1616,Alverca Air Base,Alverca,Portugal,AVR,LPAR,38.883301,-9.0301,3,0,E,Europe/Lisbon,38.883301,-9.0301
1618,Bragança Airport,Braganca,Portugal,BGC,LPBG,41.8578,-6.70713,683,0,E,Europe/Lisbon,41.8578,-6.70713
1622,Cascais Airport,Cascais,Portugal,CAT,LPCS,38.724998,-9.35523,99,0,E,Europe/Lisbon,38.724998,-9.35523
1625,Flores Airport,Flores,Portugal,FLW,LPFL,39.45529938,-31.13139915,34,-1,E,Atlantic/Azores,39.45529938,-31.13139915
1631,Montijo Air Base,Montijo,Portugal,0,LPMT,38.703899,-9.03592,14,0,E,Europe/Lisbon,38.703899,-9.03592
1636,Francisco de Sá Carneiro Airport,Porto,Portugal,OPO,LPPR,41.24810028,-8.681389809,69,0,E,Europe/Lisbon,41.24810028,-8.681389809
1639,São Jorge Airport,Sao Jorge Island,Portugal,SJZ,LPSJ,38.66550064,-28.17580032,95,-1,E,Atlantic/Azores,38.66550064,-28.17580032
1640,Sintra Air Base,Sintra,Portugal,0,LPST,38.8311,-9.33955,134,0,E,Europe/Lisbon,38.8311,-9.33955
1643,Aerodromo Goncalves Lobato (Viseu Airport),Viseu,Portugal,VSE,LPVZ,40.725498,-7.88899,628,0,E,Europe/Lisbon,40.725498,-7.88899
1645,Mostar International Airport,Mostar,Bosnia and Herzegovina,OMO,LQMO,43.28290176,17.84589958,48,1,E,Europe/Sarajevo,43.28290176,17.84589958
1648,Bac?u Airport,Bacau,Romania,BCM,LRBC,46.52190018,26.9102993,185,2,E,Europe/Bucharest,46.52190018,26.9102993
1649,Tautii Magheraus Airport,Baia Mare,Romania,BAY,LRBM,47.65840149,23.46999931,184,2,E,Europe/Bucharest,47.65840149,23.46999931
1650,B?neasa International Airport,Bucharest,Romania,BBU,LRBS,44.50320053,26.10210037,91,2,E,Europe/Bucharest,44.50320053,26.10210037
1651,Mihail Kog?lniceanu International Airport,Constanta,Romania,CND,LRCK,44.36220169,28.48830032,108,2,E,Europe/Bucharest,44.36220169,28.48830032
1655,Ia?i Airport,Iasi,Romania,IAS,LRIA,47.17850113,27.62059975,121,2,E,Europe/Bucharest,47.17850113,27.62059975
1657,Henri Coand? International Airport,Bucharest,Romania,OTP,LROP,44.5711111,26.085,96,2,E,Europe/Bucharest,44.5711111,26.085
1666,Saanen Airport,Saanen,Switzerland,0,LSGK,46.48749924,7.250830173,1008,1,E,Europe/Zurich,46.48749924,7.250830173
1672,Meiringen Airport,Meiringen,Switzerland,0,LSMM,46.74330139,8.109999657,578,1,E,Europe/Zurich,46.74330139,8.109999657
1675,Lugano Airport,Lugano,Switzerland,LUG,LSZA,46.00429916,8.910579681,279,1,E,Europe/Zurich,46.00429916,8.910579681
1681,Güvercinlik Airport,Ankara,Turkey,0,LTAB,39.93500137,32.74079895,819,2,E,Europe/Istanbul,39.93500137,32.74079895
1682,Esenbo?a International Airport,Ankara,Turkey,ESB,LTAC,40.12810135,32.99509811,952,3,E,Europe/Istanbul,40.12810135,32.99509811
1688,Antalya International Airport,Antalya,Turkey,AYT,LTAI,36.898701,30.800501,54,3,E,Europe/Istanbul,36.898701,30.800501
1695,Malatya Erhaç Airport,Malatya,Turkey,MLX,LTAT,38.43529892,38.0909996,862,3,E,Europe/Istanbul,38.43529892,38.0909996
1696,Kayseri Erkilet Airport,Kayseri,Turkey,ASR,LTAU,38.770401,35.49539948,1055,3,E,Europe/Istanbul,38.770401,35.49539948
1697,Sivrihisar Airport,Sivrihisar,Turkey,0,LTAV,39.45149994,31.36529922,971,3,E,Europe/Istanbul,39.45149994,31.36529922
1701,Atatürk International Airport,Istanbul,Turkey,ISL,LTBA,40.976898,28.8146,50,3,E,Europe/Istanbul,40.976898,28.8146
1702,Bal?kesir Merkez Airport,Balikesir,Turkey,BZI,LTBF,39.61930084,27.9260006,104,3,E,Europe/Istanbul,39.61930084,27.9260006
1708,Çi?li Airport,Izmir,Turkey,IGL,LTBL,38.51300049,27.01009941,5,3,E,Europe/Istanbul,38.51300049,27.01009941
1712,Yalova Airport,Yalova,Turkey,0,LTBP,40.68439865,29.3757,2,3,E,Europe/Istanbul,40.68439865,29.3757
1713,Cengiz Topel Airport,Topel,Turkey,KCO,LTBQ,40.73500061,30.08329964,55,3,E,Europe/Istanbul,40.73500061,30.08329964
1719,Samand?ra Air Base,Istanbul,Turkey,0,LTBX,40.99300003,29.21649933,122,3,E,Europe/Istanbul,40.99300003,29.21649933
1726,Trabzon International Airport,Trabzon,Turkey,TZX,LTCG,40.99509811,39.78969955,32,3,E,Europe/Istanbul,40.99509811,39.78969955
1728,Van Ferit Melen Airport,Van,Turkey,VAN,LTCI,38.46820068,43.33229828,1670,3,E,Europe/Istanbul,38.46820068,43.33229828
1731,Siirt Airport,Siirt,Turkey,SXZ,LTCL,37.97890091,41.8404007,610,3,E,Europe/Istanbul,37.97890091,41.8404007
1734,B?l?i International Airport,Saltsy,Moldova,BZY,LUBL,47.843056,27.777222,231,2,E,Europe/Chisinau,47.843056,27.777222
1736,Ohrid St. Paul the Apostle Airport,Ohrid,Macedonia,OHD,LWOH,41.18,20.7423,705,1,E,Europe/Skopje,41.18,20.7423
1741,Podgorica Airport,Podgorica,Montenegro,TGD,LYPG,42.359402,19.2519,43,1,E,Europe/Podgorica,42.359402,19.2519
1742,Priština International Airport,Pristina,Serbia,PRN,BKPR,42.5728,21.035801,545,1,E,Europe/Belgrade,42.5728,21.035801
1743,Tivat Airport,Tivat,Montenegro,TIV,LYTV,42.40470123,18.72330093,6,1,E,Europe/Podgorica,42.40470123,18.72330093
1744,Vršac International Airport,Vrsac,Serbia,0,LYVR,45.1469,21.3099,84,1,E,Europe/Belgrade,45.1469,21.3099
1745,M. R. Štefánik Airport,Bratislava,Slovakia,BTS,LZIB,48.17020035,17.21269989,133,1,E,Europe/Bratislava,48.17020035,17.21269989
1748,Pieš?any Airport,Piestany,Slovakia,PZY,LZPP,48.62519836,17.82839966,166,1,E,Europe/Bratislava,48.62519836,17.82839966
1749,Slia? Airport,Sliac,Slovakia,SLD,LZSL,48.63779831,19.13409996,318,1,E,Europe/Bratislava,48.63779831,19.13409996
1750,Tren?ín Airport,Trencin,Slovakia,0,LZTN,48.86500168,17.99230003,206,1,E,Europe/Bratislava,48.86500168,17.99230003
1751,Poprad-Tatry Airport,Poprad,Slovakia,TAT,LZTT,49.07360077,20.24110031,718,1,E,Europe/Bratislava,49.07360077,20.24110031
1754,Providenciales Airport,Providenciales,Turks and Caicos Islands,PLS,MBPV,21.77359962,-72.26589966,5,-4,U,America/Grand_Turk,21.77359962,-72.26589966
1755,South Caicos Airport,South Caicos,Turks and Caicos Islands,XSC,MBSC,21.51569939,-71.52850342,2,-4,U,America/Grand_Turk,21.51569939,-71.52850342
1760,Punta Cana International Airport,Punta Cana,Dominican Republic,PUJ,MDPC,18.56739998,-68.36340332,14,-4,U,America/Santo_Domingo,18.56739998,-68.36340332
1761,Gregorio Luperon International Airport,Puerto Plata,Dominican Republic,POP,MDPP,19.75790024,-70.56999969,5,-4,U,America/Santo_Domingo,19.75790024,-70.56999969
1764,Cibao International Airport,Santiago,Dominican Republic,STI,MDST,19.40609932,-70.60469818,172,-4,U,America/Santo_Domingo,19.40609932,-70.60469818
1769,Retalhuleu Airport,Retalhuleu,Guatemala,RER,MGRT,14.52099991,-91.69730377,200,-6,U,America/Guatemala,14.52099991,-91.69730377
1783,General Juan N Alvarez International Airport,Acapulco,Mexico,ACA,MMAA,16.75709915,-99.7539978,5,-6,S,America/Mexico_City,16.75709915,-99.7539978
1784,Del Norte International Airport,Monterrey,Mexico,NTR,MMAN,25.865601,-100.237,450,-6,S,America/Mexico_City,25.865601,-100.237
1785,Jesús Terán Paredo International Airport,Aguascalientes,Mexico,AGU,MMAS,21.705601,-102.318001,1863,-6,S,America/Mexico_City,21.705601,-102.318001
1796,Abraham González International Airport,Ciudad Juarez,Mexico,CJS,MMCS,31.63610077,-106.4290009,1190,-7,S,America/Mazatlan,31.63610077,-106.4290009
1800,Cozumel International Airport,Cozumel,Mexico,CZM,MMCZ,20.5223999,-86.92559814,5,-5,S,America/Cancun,20.5223999,-86.92559814
1804,Don Miguel Hidalgo Y Costilla International Airport,Guadalajara,Mexico,GDL,MMGL,20.52179909,-103.310997,1529,-6,S,America/Mexico_City,20.52179909,-103.310997
1806,Tehuacan Airport,Tehuacan,Mexico,TCN,MMHC,18.49720001,-97.41989899,1679,-6,S,America/Mexico_City,18.49720001,-97.41989899
1809,Isla Mujeres Airport,Isla Mujeres,Mexico,ISJ,MMIM,21.24500084,-86.73999786,2,-5,S,America/Cancun,21.24500084,-86.73999786
1811,Ixtepec Airport,Iztepec,Mexico,IZT,MMIT,16.449301,-95.093697,50,-6,S,America/Mexico_City,16.449301,-95.093697
1813,Lázaro Cárdenas Airport,Lazard Cardenas,Mexico,LZC,MMLC,18.00169945,-102.2210007,12,-6,S,America/Mexico_City,18.00169945,-102.2210007
1814,Valle del Fuerte International Airport,Los Mochis,Mexico,LMM,MMLM,25.68519974,-109.0810013,5,-7,S,America/Mazatlan,25.68519974,-109.0810013
1815,Del Bajío International Airport,Del Bajio,Mexico,BJX,MMLO,20.9935,-101.481003,1815,-6,S,America/Mexico_City,20.9935,-101.481003
1817,Loreto International Airport,Loreto,Mexico,LTO,MMLT,25.98920059,-111.3479996,10,-7,S,America/Mazatlan,25.98920059,-111.3479996
1818,General Servando Canales International Airport,Matamoros,Mexico,MAM,MMMA,25.76989937,-97.52529907,8,-6,S,America/Mexico_City,25.76989937,-97.52529907
1821,General Francisco J. Mujica International Airport,Morelia,Mexico,MLM,MMMM,19.84989929,-101.0250015,1839,-6,S,America/Mexico_City,19.84989929,-101.0250015
1826,General Rafael Buelna International Airport,Mazatlan,Mexico,MZT,MMMZ,23.16139984,-106.2659988,12,-7,S,America/Mazatlan,23.16139984,-106.2659988
1831,Hermanos Serdán International Airport,Puebla,Mexico,PBC,MMPB,19.15810013,-98.37139893,2244,-6,S,America/Mexico_City,19.15810013,-98.37139893
1832,Ingeniero Juan Guillermo Villasana Airport,Pachuca,Mexico,0,MMPC,20.0774,-98.782501,2316,-6,S,America/Mexico_City,20.0774,-98.782501
1835,Licenciado y General Ignacio Lopez Rayon Airport,Uruapan,Mexico,UPN,MMPN,19.39669991,-102.0390015,1603,-6,S,America/Mexico_City,19.39669991,-102.0390015
1839,General Lucio Blanco International Airport,Reynosa,Mexico,REX,MMRX,26.0089,-98.2285,42,-6,S,America/Mexico_City,26.0089,-98.2285
1840,Los Cabos International Airport,San Jose Del Cabo,Mexico,SJD,MMSD,23.15180016,-109.7210007,114,-7,S,America/Mazatlan,23.15180016,-109.7210007
1841,San Felipe International Airport,San Filipe,Mexico,SFH,MMSF,30.93020058,-114.8089981,45,-8,S,America/Tijuana,30.93020058,-114.8089981
1843,Tlaxcala Airport,Tlaxcala,Mexico,0,MMTA,19.537992,-98.173492,2508,-6,S,America/Mexico_City,19.537992,-98.173492
1846,Angel Albino Corzo International Airport,Tuxtla Gutierrez,Mexico,TGZ,MMTG,16.56360054,-93.02249908,457,-6,S,America/Mexico_City,16.56360054,-93.02249908
1855,General Leobardo C. Ruiz International Airport,Zacatecas,Mexico,ZCL,MMZC,22.89710045,-102.6869965,2176,-6,S,America/Mexico_City,22.89710045,-102.6869965
1856,Ixtapa Zihuatanejo International Airport,Zihuatanejo,Mexico,ZIH,MMZH,17.60160065,-101.4609985,8,-6,S,America/Mexico_City,17.60160065,-101.4609985
1857,Zamora Airport,Zamora,Mexico,ZMM,MMZM,20.045,-102.276001,1567,-6,S,America/Mexico_City,20.045,-102.276001
1859,Zapopan Airport,Zapopan,Mexico,0,MMZP,20.747922,-103.461709,1625,-6,S,America/Mexico_City,20.747922,-103.461709
1867,Enrique Malek International Airport,David,Panama,DAV,MPDA,8.390999794,-82.43499756,27,-5,U,America/Panama,8.390999794,-82.43499756
1870,Ruben Cantu Airport,Santiago,Panama,SYP,MPSA,8.085599899,-80.94529724,83,-5,U,America/Panama,8.085599899,-80.94529724
1872,Buenos Aires Airport,Buenos Aires,Costa Rica,BAI,MRBA,9.163949,-83.330171,370,-6,U,America/Costa_Rica,9.163949,-83.330171
1875,Chacarita Airport,Chacarita,Costa Rica,JAP,MRCH,9.981410027,-84.77269745,2,-6,U,America/Costa_Rica,9.981410027,-84.77269745
1880,Guapiles Airport,Guapiles,Costa Rica,GPL,MRGP,10.21720028,-83.79699707,269,-6,U,America/Costa_Rica,10.21720028,-83.79699707
1881,Daniel Oduber Quiros International Airport,Liberia,Costa Rica,LIR,MRLB,10.5933,-85.544403,82,-6,U,America/Costa_Rica,10.5933,-85.544403
1886,Pandora Airport,Pandora,Costa Rica,0,MRPD,9.732170105,-82.98320007,30,-6,U,America/Costa_Rica,9.732170105,-82.98320007
1898,Gustavo Rizo Airport,Baracoa Playa,Cuba,BCA,MUBA,20.36529922,-74.5062027,8,-5,U,America/Havana,20.36529922,-74.5062027
1906,Florida Airport,Florida,Cuba,0,MUFL,21.49970055,-78.20279694,60,-5,U,America/Havana,21.49970055,-78.20279694
1911,La Coloma Airport,La Coloma,Cuba,LCL,MULM,22.33609962,-83.64189911,40,-5,U,America/Havana,22.33609962,-83.64189911
1912,Orestes Acosta Airport,Moa,Cuba,MOA,MUMO,20.65390015,-74.92220306,5,-5,U,America/Havana,20.65390015,-74.92220306
1916,Pinar Del Rio Airport,Pinar Del Rio Norte,Cuba,QPD,MUPR,22.42140007,-83.67839813,40,-5,U,America/Havana,22.42140007,-83.67839813
1918,Abel Santamaria Airport,Santa Clara,Cuba,SNU,MUSC,22.49220085,-79.94360352,103,-5,U,America/Havana,22.49220085,-79.94360352
1920,Siguanea Airport,Siguanea,Cuba,SZJ,MUSN,21.64249992,-82.95510101,12,-5,U,America/Havana,21.64249992,-82.95510101
1921,Sancti Spiritus Airport,Sancti Spiritus,Cuba,USS,MUSS,21.9704,-79.442703,90,-5,U,America/Havana,21.9704,-79.442703
1923,Juan Gualberto Gomez International Airport,Varadero,Cuba,VRA,MUVR,23.03440094,-81.43530273,64,-5,U,America/Havana,23.03440094,-81.43530273
1924,Hermanos Ameijeiras Airport,Las Tunas,Cuba,VTU,MUVT,20.98760033,-76.93579865,100,-5,U,America/Havana,20.98760033,-76.93579865
1931,San Andros Airport,San Andros,Bahamas,SAQ,MYAN,25.05380058,-78.0490036,2,-5,U,America/Nassau,25.05380058,-78.0490036
1934,Treasure Cay Airport,Treasure Cay,Bahamas,TCB,MYAT,26.74530029,-77.39129639,2,-5,U,America/Nassau,26.74530029,-77.39129639
1936,Great Harbour Cay Airport,Bullocks Harbour,Bahamas,GHC,MYBG,25.7383,-77.840103,5,-5,U,America/Nassau,25.7383,-77.840103
1937,South Bimini Airport,Alice Town,Bahamas,BIM,MYBS,25.69989967,-79.26470184,3,-5,U,America/Nassau,25.69989967,-79.26470184
1941,Exuma International Airport,Great Exuma,Bahamas,GGT,MYEF,23.56259918,-75.87799835,3,-5,U,America/Nassau,23.56259918,-75.87799835
1949,Inagua Airport,Matthew Town,Bahamas,IGA,MYIG,20.97500038,-73.66690063,2,-5,U,America/Nassau,20.97500038,-73.66690063
1950,Deadman's Cay Airport,Dead Man's Cay,Bahamas,LGI,MYLD,23.17900085,-75.09359741,3,-5,U,America/Nassau,23.17900085,-75.09359741
1951,Stella Maris Airport,Stella Maris,Bahamas,SML,MYLS,23.582317,-75.268621,3,-5,U,America/Nassau,23.582317,-75.268621
1955,Rum Cay Airport,Port Nelson,Bahamas,RCY,MYRP,23.68440056,-74.8361969,5,-5,U,America/Nassau,23.68440056,-74.8361969
1956,San Salvador Airport,Cockburn Town,Bahamas,ZSA,MYSM,24.06329918,-74.52400208,7,-5,U,America/Nassau,24.06329918,-74.52400208
1965,Bonriki International Airport,Tarawa,Kiribati,TRW,NGTA,1.381639957,173.1470032,3,12,U,Pacific/Tarawa,1.381639957,173.1470032
1969,Faleolo International Airport,Faleolo,Samoa,APW,NSFA,-13.82999992,-172.0079956,18,13,U,Pacific/Apia,-13.82999992,-172.0079956
1970,Pago Pago International Airport,Pago Pago,American Samoa,PPG,NSTU,-14.33100033,-170.7100067,10,-11,U,Pacific/Pago_Pago,-14.33100033,-170.7100067
1975,Tikehau Airport,Tikehau,French Polynesia,TIH,NTGC,-15.1196003,-148.2310028,2,-10,U,Pacific/Tahiti,-15.1196003,-148.2310028
1976,Reao Airport,Reao,French Polynesia,REA,NTGE,-18.46590042,-136.4400024,4,-10,U,0,-18.46590042,-136.4400024
1980,Kaukura Airport,Kaukura Atoll,French Polynesia,KKR,NTGK,-15.66329956,-146.8849945,3,-10,U,Pacific/Tahiti,-15.66329956,-146.8849945
1981,Makemo Airport,Makemo,French Polynesia,MKP,NTGM,-16.58390045,-143.6580048,1,-10,U,Pacific/Tahiti,-16.58390045,-143.6580048
1986,Takaroa Airport,Takaroa,French Polynesia,TKX,NTKR,-14.45580006,-145.0249939,4,-10,U,Pacific/Tahiti,-14.45580006,-145.0249939
1990,Rangiroa Airport,Rangiroa,French Polynesia,RGI,NTTG,-14.95429993,-147.6609955,3,-10,U,Pacific/Tahiti,-14.95429993,-147.6609955
1993,Hao Airport,Hao Island,French Polynesia,HOI,NTTO,-18.07480049,-140.9459991,3,-10,U,0,-18.07480049,-140.9459991
1994,Maupiti Airport,Maupiti,French Polynesia,MAU,NTTP,-16.42650032,-152.2440033,5,-10,U,Pacific/Tahiti,-16.42650032,-152.2440033
2005,La Tontouta International Airport,Noumea,New Caledonia,NOU,NWWW,-22.01460075,166.2129974,16,11,U,Pacific/Noumea,-22.01460075,166.2129974
2010,Chatham Islands-Tuuta Airport,Chatham Island,New Zealand,CHT,NZCI,-43.81000137,-176.4570007,13,12.75,Z,Pacific/Chatham,-43.81000137,-176.4570007
2013,Glentanner Airport,Glentanner,New Zealand,GTN,NZGT,-43.90670013,170.128006,556,12,Z,Pacific/Auckland,-43.90670013,170.128006
2014,Hokitika Airfield,Hokitika,New Zealand,HKK,NZHK,-42.71360016,170.9850006,44,12,Z,Pacific/Auckland,-42.71360016,170.9850006
2024,Nelson Airport,Nelson,New Zealand,NSN,NZNS,-41.2983017,173.220993,5,12,Z,Pacific/Auckland,-41.2983017,173.220993
2032,Waiouru Airport,Waiouru,New Zealand,0,NZRU,-39.44639969,175.6580048,819,12,Z,Pacific/Auckland,-39.44639969,175.6580048
2033,South Pole Station Airport,Stephen's Island,Antarctica,0,NZSP,-90,0,2835,12,U,Antarctica/South_Pole,-90,0
2039,Wanaka Airport,Wanaka,New Zealand,WKA,NZWF,-44.72219849,169.2460022,348,12,Z,Pacific/Auckland,-44.72219849,169.2460022
2041,Whakatane Airport,Whakatane,New Zealand,WHK,NZWK,-37.92060089,176.9140015,6,12,Z,Pacific/Auckland,-37.92060089,176.9140015
2044,RNZAF Base Auckland-Whenuapai,Whenuapai,New Zealand,0,NZWP,-36.78779984,174.6300049,30,12,Z,Pacific/Auckland,-36.78779984,174.6300049
2051,Kandahar Airport,Kandahar,Afghanistan,KDH,OAKN,31.50580025,65.84780121,1017,4.5,U,Asia/Kabul,31.50580025,65.84780121
2054,Shindand Airport,Shindand,Afghanistan,OAH,OASD,33.3913002,62.26100159,1150,4.5,U,Asia/Kabul,33.3913002,62.26100159
2058,Sheik Isa Air Base,Bahrain,Bahrain,0,OBBS,25.91839981,50.59059906,41,3,U,Asia/Bahrain,25.91839981,50.59059906
2059,Abha Regional Airport,Abha,Saudi Arabia,AHB,OEAB,18.24040031,42.65660095,2090,3,U,Asia/Riyadh,18.24040031,42.65660095
2060,Al Ahsa Airport,Al-ahsa,Saudi Arabia,HOF,OEAH,25.2852993,49.48519897,179,3,U,Asia/Riyadh,25.2852993,49.48519897
2061,Al Baha Airport,El-baha,Saudi Arabia,ABT,OEBA,20.29610062,41.63430023,1672,3,U,Asia/Riyadh,20.29610062,41.63430023
2066,Jizan Regional Airport,Gizan,Saudi Arabia,GIZ,OEGN,16.90110016,42.58580017,6,3,U,Asia/Riyadh,16.90110016,42.58580017
2072,King Abdulaziz International Airport,Jeddah,Saudi Arabia,JED,OEJN,21.6796,39.156502,15,3,U,Asia/Riyadh,21.6796,39.156502
2078,Pump Station 6 Airport,Petroline 6,Saudi Arabia,0,OEPF,24.71030045,44.96450043,771,3,U,Asia/Riyadh,24.71030045,44.96450043
2081,Rafha Domestic Airport,Rafha,Saudi Arabia,RAH,OERF,29.62639999,43.49060059,449,3,U,Asia/Riyadh,29.62639999,43.49060059
2082,King Khaled International Airport,Riyadh,Saudi Arabia,RUH,OERK,24.95759964,46.69879913,625,3,U,Asia/Riyadh,24.95759964,46.69879913
2084,Arar Domestic Airport,Arar,Saudi Arabia,RAE,OERR,30.90660095,41.13819885,553,3,U,Asia/Riyadh,30.90660095,41.13819885
2086,Sharurah Airport,Sharurah,Saudi Arabia,SHW,OESH,17.46689987,47.12139893,720,3,U,Asia/Riyadh,17.46689987,47.12139893
2098,Dezful Airport,Dezful,Iran,DEF,OIAD,32.434399,48.397598,144,3.5,E,Asia/Tehran,32.434399,48.397598
2108,Asaloyeh Airport,Golbandi,Iran,0,OIBI,27.4814,52.615501,5,3.5,E,Asia/Tehran,27.4814,52.615501
2114,Shahid Ashrafi Esfahani Airport,Bakhtaran,Iran,KSH,OICC,34.34590149,47.15810013,1313,3.5,E,Asia/Tehran,34.34590149,47.15810013
2118,Hesa Airport,Daran,Iran,IFH,OIFE,32.92890167,51.56110001,1602,3.5,E,Asia/Tehran,32.92890167,51.56110001
2120,Kashan Airport,Kashan,Iran,KKS,OIFK,33.895302,51.577,1056,3.5,E,Asia/Tehran,33.895302,51.577
2122,Badr Air Base,Sepah,Iran,0,OIFP,32.62110138,51.6969986,1598,3.5,E,Asia/Tehran,32.62110138,51.6969986
2128,Doshan Tappeh Air Base,Teheran,Iran,0,OIID,35.70299911,51.47510147,1233,3.5,E,Asia/Tehran,35.70299911,51.47510147
2131,Mehrabad International Airport,Teheran,Iran,THR,OIII,35.68920135,51.31340027,1208,3.5,E,Asia/Tehran,35.68920135,51.31340027
2133,Naja Airport,Khoram Dareh,Iran,0,OIIM,35.77629852,50.88100052,1231,3.5,E,Asia/Tehran,35.77629852,50.88100052
2134,Bandar Abbas International Airport,Bandar Abbas,Iran,BND,OIKB,27.21829987,56.37779999,7,3.5,E,Asia/Tehran,27.21829987,56.37779999
2138,Havadarya Airport,Bandar Abbas,Iran,HDR,OIKP,27.1583004,56.17250061,6,3.5,E,Asia/Tehran,27.1583004,56.17250061
2141,Sirjan Airport,Sirjan,Iran,SYJ,OIKY,29.55089951,55.67269897,1782,3.5,E,Asia/Tehran,29.55089951,55.67269897
2143,Sarakhs Airport,Sarakhs,Iran,CKT,OIMC,36.50120163,61.06489944,288,3.5,E,Asia/Tehran,36.50120163,61.06489944
2151,Ramsar Airport,Ramsar,Iran,RZR,OINR,36.90990067,50.67959976,-21,3.5,E,Asia/Tehran,36.90990067,50.67959976
2153,Fasa Airport,Fasa,Iran,FAZ,OISF,28.89179993,53.72330093,1299,3.5,E,Asia/Tehran,28.89179993,53.72330093
2156,Lamerd Airport,Lamerd,Iran,LFM,OISR,27.37269974,53.18880081,407,3.5,E,Asia/Tehran,27.37269974,53.18880081
2157,Shiraz Shahid Dastghaib International Airport,Shiraz,Iran,SYZ,OISS,29.53919983,52.58980179,1500,3.5,E,Asia/Tehran,29.53919983,52.58980179
2162,Tabriz International Airport,Tabriz,Iran,TBZ,OITT,38.13389969,46.23500061,1359,3.5,E,Asia/Tehran,38.13389969,46.23500061
2166,Konarak Airport,Chah Bahar,Iran,ZBR,OIZC,25.44330025,60.38209915,13,3.5,E,Asia/Tehran,25.44330025,60.38209915
2168,Iran Shahr Airport,Iran Shahr,Iran,IHR,OIZI,27.23609924,60.72000122,622,3.5,E,Asia/Tehran,27.23609924,60.72000122
2171,Amman-Marka International Airport,Amman,Jordan,ADJ,OJAM,31.97270012,35.99160004,779,2,E,Asia/Amman,31.97270012,35.99160004
2172,Aqaba King Hussein International Airport,Aqaba,Jordan,AQJ,OJAQ,29.61160088,35.01810074,53,2,E,Asia/Amman,29.61160088,35.01810074
2174,Jerusalem Airport,Jerusalem,West Bank,0,OJJR,31.86470032,35.21920013,757,2,U,Asia/Jerusalem,31.86470032,35.21920013
2176,Kuwait International Airport,Kuwait,Kuwait,KWI,OKBK,29.22660065,47.96889877,63,3,U,Asia/Kuwait,29.22660065,47.96889877
2177,Beirut Rafic Hariri International Airport,Beirut,Lebanon,BEY,OLBA,33.82089996,35.48839951,27,2,E,Asia/Beirut,33.82089996,35.48839951
2178,Rene Mouawad Air Base,Kleiat,Lebanon,KYE,OLKA,34.58929825,36.01129913,23,2,E,Asia/Beirut,34.58929825,36.01129913
2180,Bateen Airport,Abu Dhabi,United Arab Emirates,AZI,OMAD,24.42830086,54.45809937,5,4,U,Asia/Dubai,24.42830086,54.45809937
2184,Al Dhafra Air Base,Abu Dhabi,United Arab Emirates,DHF,OMAM,24.24819946,54.54769897,23,4,U,Asia/Dubai,24.24819946,54.54769897
2185,Arzanah Airport,Arzana,United Arab Emirates,0,OMAR,24.78050041,52.55989838,5,4,U,Asia/Dubai,24.78050041,52.55989838
2187,Zirku Airport,Zirku,United Arab Emirates,0,OMAZ,24.86249161,53.07714081,4,4,U,Asia/Dubai,24.86249161,53.07714081
2192,Khasab Air Base,Khasab,Oman,KHS,OOKB,26.17099953,56.24060059,30,4,U,Asia/Muscat,26.17099953,56.24060059
2202,Faisalabad International Airport,Faisalabad,Pakistan,LYP,OPFA,31.36499977,72.99479675,180,5,N,Asia/Karachi,31.36499977,72.99479675
2204,Gilgit Airport,Gilgit,Pakistan,GIL,OPGT,35.91880035,74.33360291,1462,5,N,Asia/Karachi,35.91880035,74.33360291
2209,Mangla Airport,Mangla,Pakistan,XJM,OPMA,33.05009842,73.63839722,275,5,N,Asia/Karachi,33.05009842,73.63839722
2211,Mianwali Air Base,Mianwali,Pakistan,MWD,OPMI,32.56309891,71.5707016,210,5,N,Asia/Karachi,32.56309891,71.5707016
2220,Qasim Airport,Qasim,Pakistan,0,OPQS,33.56019974,73.03320313,482,5,N,Asia/Karachi,33.56019974,73.03320313
2222,Shaikh Zaid Airport,Rahim Yar Khan,Pakistan,RYK,OPRK,28.38389969,70.27960205,83,5,N,Asia/Karachi,28.38389969,70.27960205
2230,Talhar Airport,Talhar,Pakistan,BDN,OPTH,24.84149933,68.83840179,9,5,N,Asia/Karachi,24.84149933,68.83840179
2232,Wana Airport,Wana,Pakistan,WAF,OPWN,32.30469894,69.57039642,1387,5,N,Asia/Karachi,32.30469894,69.57039642
2233,Zhob Airport,Zhob,Pakistan,PZH,OPZB,31.35840034,69.46360016,1441,5,N,Asia/Karachi,31.35840034,69.46360016
2235,Aleppo International Airport,Aleppo,Syria,ALP,OSAP,36.18069839,37.22439957,389,2,E,Asia/Damascus,36.18069839,37.22439957
2236,Damascus International Airport,Damascus,Syria,DAM,OSDI,33.41149902,36.5155983,616,2,E,Asia/Damascus,33.41149902,36.5155983
2237,Deir ez-Zor Air Base,Deire Zor,Syria,DEZ,OSDZ,35.2854,40.175999,213,2,E,Asia/Damascus,35.2854,40.175999
2242,Canton Island Airport,Canton Island,Kiribati,CIS,PCIS,-2.76812005,-171.7100067,3,13,U,Pacific/Enderbury,-2.76812005,-171.7100067
2243,Rota International Airport,Rota,Northern Mariana Islands,ROP,PGRO,14.17430019,145.2429962,185,10,U,Pacific/Saipan,14.17430019,145.2429962
2244,Saipan International Airport,Saipan,Northern Mariana Islands,SPN,PGSN,15.119,145.729004,66,10,U,Pacific/Saipan,15.119,145.729004
2250,Dyess Army Air Field,Kwajalein,Marshall Islands,0,PKRO,9.396889687,167.470993,3,12,U,Pacific/Majuro,9.396889687,167.470993
2251,Bucholz Army Air Field,Kwajalein,Marshall Islands,KWA,PKWA,8.72012043,167.7319946,3,12,U,Pacific/Majuro,8.72012043,167.7319946
2255,Pohnpei International Airport,Pohnpei,Micronesia,PNI,PTPN,6.985099792,158.2089996,3,11,U,Pacific/Ponape,6.985099792,158.2089996
2256,Babelthuap Airport,Babelthuap,Palau,ROR,PTRO,7.36731,134.544236,54,9,U,Pacific/Palau,7.36731,134.544236
2260,Pingtung South Airport,Pingtung,Taiwan,0,RCDC,22.67239952,120.461998,24,8,U,Asia/Taipei,22.67239952,120.461998
2263,Lyudao Airport,Green Island,Taiwan,GNI,RCGI,22.6739006,121.4660034,9,8,U,Asia/Taipei,22.6739006,121.4660034
2267,Lanyu Airport,Lanyu,Taiwan,KYD,RCLY,22.02700043,121.5350037,13,8,U,Asia/Taipei,22.02700043,121.5350037
2274,Pingtung North Airport,Pingtung,Taiwan,PIF,RCSQ,22.70019913,120.4820023,30,8,U,Asia/Taipei,22.70019913,120.4820023
2279,Narita International Airport,Tokyo,Japan,NRT,RJAA,35.76470184,140.3860016,43,9,U,Asia/Tokyo,35.76470184,140.3860016
2280,Matsumoto Airport,Matsumoto,Japan,MMJ,RJAF,36.16680145,137.9230042,665,9,U,Asia/Tokyo,36.16680145,137.9230042
2283,Iwo Jima Airport,Iwojima,Japan,IWO,RJAW,24.7840004,141.322998,117,9,U,Asia/Tokyo,24.7840004,141.322998
2289,Chitose Air Base,Chitose,Japan,0,RJCJ,42.79449844,141.6660004,27,9,U,Asia/Tokyo,42.79449844,141.6660004
2298,Monbetsu Airport,Monbetsu,Japan,MBE,RJEB,44.30390167,143.404007,24,9,U,Asia/Tokyo,44.30390167,143.404007
2299,Asahikawa Airport,Asahikawa,Japan,AKJ,RJEC,43.67079926,142.4470062,220,9,U,Asia/Tokyo,43.67079926,142.4470062
2303,Yakushima Airport,Yakushima,Japan,KUM,RJFC,30.38559914,130.6589966,38,9,U,Asia/Tokyo,30.38559914,130.6589966
2313,Nagasaki Airport,Nagasaki,Japan,NGS,RJFU,32.91690063,129.9140015,5,9,U,Asia/Tokyo,32.91690063,129.9140015
2314,Kanoya Airport,Kanoya,Japan,0,RJFY,31.36759949,130.8450012,65,9,U,Asia/Tokyo,31.36759949,130.8450012
2315,Tsuiki Air Field,Tsuiki,Japan,0,RJFZ,33.68500137,131.0399933,17,9,U,Asia/Tokyo,33.68500137,131.0399933
2320,Gifu Airport,Gifu,Japan,QGU,RJNG,35.39410019,136.8699951,39,9,U,Asia/Tokyo,35.39410019,136.8699951
2323,Oki Airport,Oki Island,Japan,OKI,RJNO,36.18109894,133.3249969,95,9,U,Asia/Tokyo,36.18109894,133.3249969
2324,Toyama Airport,Toyama,Japan,TOY,RJNT,36.64830017,137.1880035,29,9,U,Asia/Tokyo,36.64830017,137.1880035
2328,Izumo Airport,Izumo,Japan,IZO,RJOC,35.41360092,132.8899994,5,9,U,Asia/Tokyo,35.41360092,132.8899994
2332,K?chi Ry?ma Airport,Kochi,Japan,KCZ,RJOK,33.546101,133.669006,13,9,U,Asia/Tokyo,33.546101,133.669006
2334,Osaka International Airport,Osaka,Japan,ITM,RJOO,34.78549957,135.4380035,15,9,U,Asia/Tokyo,34.78549957,135.4380035
2335,Tottori Airport,Tottori,Japan,TTJ,RJOR,35.53010178,134.1670074,20,9,U,Asia/Tokyo,35.53010178,134.1670074
2336,Tokushima Airport/JMSDF Air Base,Tokushima,Japan,TKS,RJOS,34.132801,134.606995,8,9,U,Asia/Tokyo,34.132801,134.606995
2337,Takamatsu Airport,Takamatsu,Japan,TAK,RJOT,34.21419907,134.0160065,185,9,U,Asia/Tokyo,34.21419907,134.0160065
2338,Yao Airport,Osaka,Japan,0,RJOY,34.59629822,135.6029968,12,9,U,Asia/Tokyo,34.59629822,135.6029968
2339,Ozuki Airport,Ozuki,Japan,0,RJOZ,34.04529953,131.052002,4,9,U,Asia/Tokyo,34.04529953,131.052002
2342,Sado Airport,Sado,Japan,SDS,RJSD,38.06019974,138.4140015,27,9,U,Asia/Tokyo,38.06019974,138.4140015
2343,Hachinohe Airport,Hachinoe,Japan,HHE,RJSH,40.5564003,141.4660034,46,9,U,Asia/Tokyo,40.5564003,141.4660034
2347,Sendai Airport,Sendai,Japan,SDJ,RJSS,38.13970184,140.9170074,5,9,U,Asia/Tokyo,38.13970184,140.9170074
2348,Matsushima Air Base,Matsushima,Japan,0,RJST,38.4048996,141.2200012,2,9,U,Asia/Tokyo,38.4048996,141.2200012
2353,Iruma Air Base,Iruma,Japan,0,RJTJ,35.84189987,139.4109955,90,9,U,Asia/Tokyo,35.84189987,139.4109955
2355,Shimofusa Airport,Shimofusa,Japan,0,RJTL,35.7989006,140.0110016,30,9,U,Asia/Tokyo,35.7989006,140.0110016
2361,Gwangju Airport,Kwangju,South Korea,KWJ,RKJJ,35.123173,126.805444,12,9,U,Asia/Seoul,35.123173,126.805444
2366,Sokcho Airport,Sokch'o,South Korea,0,RKND,38.14260101,128.598999,28,9,U,Asia/Seoul,38.14260101,128.598999
2374,Ulsan Airport,Ulsan,South Korea,USN,RKPU,35.59349823,129.352005,14,9,U,Asia/Seoul,35.59349823,129.352005
2383,Yecheon Airbase,Yechon,South Korea,YEC,RKTY,36.630373,128.34971,108,9,U,Asia/Seoul,36.630373,128.34971
2385,Ie Shima Auxiliary Air Base,Iejima,Japan,0,RODE,26.7257576,127.7649002,56,9,U,Asia/Tokyo,26.7257576,127.7649002
2387,New Ishigaki Airport,Ishigaki,Japan,ISG,ROIG,24.396389,124.245,31,9,U,Asia/Tokyo,24.396389,124.245
2388,Kumejima Airport,Kumejima,Japan,UEO,ROKJ,26.3635006,126.7139969,7,9,U,Asia/Tokyo,26.3635006,126.7139969
2389,Minami-Daito Airport,Minami Daito,Japan,MMD,ROMD,25.8465004,131.2630005,51,9,U,Asia/Tokyo,25.8465004,131.2630005
2390,Miyako Airport,Miyako,Japan,MMY,ROMY,24.78280067,125.2949982,46,9,U,Asia/Tokyo,24.78280067,125.2949982
2397,Ninoy Aquino International Airport,Manila,Philippines,MNL,RPLL,14.5086,121.019997,23,8,N,Asia/Manila,14.5086,121.019997
2402,General Santos International Airport,Romblon,Philippines,GES,RPMR,6.058000088,125.0960007,154,8,N,Asia/Manila,6.058000088,125.0960007
2405,Loakan Airport,Baguio,Philippines,BAG,RPUB,16.37509918,120.6200027,1296,8,N,Asia/Manila,16.37509918,120.6200027
2407,Basa Air Base,Floridablanca,Philippines,0,RPUF,14.98724,120.492554,46,8,N,Asia/Manila,14.98724,120.492554
2409,San Jose Airport,San Jose,Philippines,SJI,RPUH,12.36149979,121.0469971,4,8,N,Asia/Manila,12.36149979,121.0469971
2411,Mamburao Airport,Mamburao,Philippines,MBO,RPUM,13.20810032,120.6050034,4,8,N,Asia/Manila,13.20810032,120.6050034
2425,Sibulan Airport,Dumaguete,Philippines,DGT,RPVD,9.333709717,123.3000031,5,8,N,Asia/Manila,9.333709717,123.3000031
2428,Guiuan Airport,Guiuan,Philippines,0,RPVG,11.03549957,125.7419968,2,8,N,Asia/Manila,11.03549957,125.7419968
2430,Kalibo International Airport,Kalibo,Philippines,KLO,RPVK,11.67940044,122.3759995,4,8,N,Asia/Manila,11.67940044,122.3759995
2433,Puerto Princesa Airport,Puerto Princesa,Philippines,PPS,RPVP,9.742119789,118.7590027,22,8,N,Asia/Manila,9.742119789,118.7590027
2436,Comodoro Pierrestegui Airport,Concordia,Argentina,COC,SAAC,-31.2969,-57.9966,34,-3,N,America/Cordoba,-31.2969,-57.9966
2439,General Urquiza Airport,Parana,Argentina,PRA,SAAP,-31.7948,-60.4804,74,-3,N,America/Cordoba,-31.7948,-60.4804
2440,Islas Malvinas Airport,Rosario,Argentina,ROS,SAAR,-32.9036,-60.785,26,-3,N,America/Cordoba,-32.9036,-60.785
2441,Sauce Viejo Airport,Santa Fe,Argentina,SFN,SAAV,-31.7117,-60.8117,17,-3,N,America/Cordoba,-31.7117,-60.8117
2442,Jorge Newbery Airpark,Buenos Aires,Argentina,AEP,SABE,-34.5592,-58.4156,5,-3,N,America/Buenos_Aires,-34.5592,-58.4156
2444,Chamical Airport,Gobernador Gordillo,Argentina,0,SACT,-30.34530067,-66.29360198,458,-3,N,America/Argentina/La_Rioja,-30.34530067,-66.29360198
2445,San Fernando Airport,San Fernando,Argentina,FDO,SADF,-34.4532,-58.5896,3,-3,N,America/Buenos_Aires,-34.4532,-58.5896
2446,Mariano Moreno Airport,Jose C. Paz,Argentina,0,SADJ,-34.5606,-58.7896,32,-3,N,America/Buenos_Aires,-34.5606,-58.7896
2448,Moron Airport,Moron,Argentina,0,SADM,-34.6763,-58.6428,29,-3,N,America/Buenos_Aires,-34.6763,-58.6428
2449,El Palomar Airport,El Palomar,Argentina,EPA,SADP,-34.6099,-58.6126,18,-3,N,America/Buenos_Aires,-34.6099,-58.6126
2455,Catamarca Airport,Catamarca,Argentina,CTC,SANC,-28.59560013,-65.75170136,464,-3,N,America/Catamarca,-28.59560013,-65.75170136
2462,Area De Material Airport,Rio Cuarto,Argentina,RCU,SAOC,-33.08509827,-64.26129913,421,-3,N,America/Cordoba,-33.08509827,-64.26129913
2463,Villa Dolores Airport,Villa Dolores,Argentina,VDR,SAOD,-31.94519997,-65.14630127,563,-3,N,America/Cordoba,-31.94519997,-65.14630127
2468,Corrientes Airport,Corrientes,Argentina,CNQ,SARC,-27.4455,-58.7619,62,-3,N,America/Cordoba,-27.4455,-58.7619
2470,Formosa Airport,Formosa,Argentina,FMA,SARF,-26.2127,-58.2281,59,-3,N,America/Cordoba,-26.2127,-58.2281
2472,Paso De Los Libres Airport,Paso De Los Libres,Argentina,AOL,SARL,-29.6894,-57.1521,70,-3,N,America/Cordoba,-29.6894,-57.1521
2473,Monte Caseros Airport,Monte Caseros,Argentina,MCS,SARM,-30.2719,-57.6402,52,-3,N,America/Cordoba,-30.2719,-57.6402
2474,Libertador Gral D Jose De San Martin Airport,Posadas,Argentina,PSS,SARP,-27.3858,-55.9707,131,-3,N,America/Cordoba,-27.3858,-55.9707
2475,Termal Airport,Presidencia R.s.pena,Argentina,PRQ,SARS,-26.753611,-60.492222,94,-3,N,America/Cordoba,-26.753611,-60.492222
2476,Martin Miguel De Guemes International Airport,Salta,Argentina,SLA,SASA,-24.8560009,-65.48619843,1246,-3,N,America/Argentina/Salta,-24.8560009,-65.48619843
2481,El Dorado Airport,El Dorado,Argentina,ELO,SATD,-26.39749908,-54.5746994,209,-3,N,America/Cordoba,-26.39749908,-54.5746994
2483,Oberá Airport,Obera,Argentina,0,SATO,-27.51819992,-55.12419891,343,-3,N,America/Cordoba,-27.51819992,-55.12419891
2484,Reconquista Airport,Reconquista,Argentina,RCQ,SATR,-29.2103,-59.68,49,-3,N,America/Cordoba,-29.2103,-59.68
2491,Gobernador Castello Airport,Viedma,Argentina,VDM,SAVV,-40.8692,-63.0004,6,-3,N,America/Argentina/Salta,-40.8692,-63.0004
2492,El Tehuelche Airport,Puerto Madryn,Argentina,PMY,SAVY,-42.7592,-65.1027,130,-3,N,America/Catamarca,-42.7592,-65.1027
2494,Puerto Deseado Airport,Puerto Deseado,Argentina,PUD,SAWD,-47.7353,-65.9041,82,-3,N,America/Argentina/Rio_Gallegos,-47.7353,-65.9041
2498,Capitan D Daniel Vazquez Airport,San Julian,Argentina,ULA,SAWJ,-49.3068,-67.8026,62,-3,N,America/Argentina/Rio_Gallegos,-49.3068,-67.8026
2499,Perito Moreno Airport,Perito Moreno,Argentina,PMQ,SAWP,-46.537899,-70.978699,430,-3,N,America/Argentina/Rio_Gallegos,-46.537899,-70.978699
2500,Santa Cruz Airport,Santa Cruz,Argentina,RZA,SAWU,-50.0165,-68.5792,111,-3,N,America/Argentina/Rio_Gallegos,-50.0165,-68.5792
2501,Comandante Espora Airport,Bahia Blanca,Argentina,BHI,SAZB,-38.725,-62.1693,75,-3,N,America/Buenos_Aires,-38.725,-62.1693
2514,Héroes De Malvinas Airport,Tandil,Argentina,TDL,SAZT,-37.23740005,-59.22790146,175,-3,N,America/Buenos_Aires,-37.23740005,-59.22790146
2516,Cutral-Co Airport,Cutralco,Argentina,CUT,SAZW,-38.93970108,-69.26460266,650,-3,N,America/Argentina/Salta,-38.93970108,-69.26460266
2526,Val de Cans/Júlio Cezar Ribeiro International Airport,Belem,Brazil,BEL,SBBE,-1.37925005,-48.47629929,16,-3,S,America/Belem,-1.37925005,-48.47629929
2530,Major Brigadeiro Doorgal Borges Airport,Barbacena,Brazil,0,SBBQ,-21.2672,-43.761101,1115,-3,S,America/Sao_Paulo,-21.2672,-43.761101
2537,Tancredo Neves International Airport,Belo Horizonte,Brazil,CNF,SBCF,-19.62444305,-43.9719429,827,-3,S,America/Sao_Paulo,-19.62444305,-43.9719429
2543,Bartolomeu Lisandro Airport,Campos,Brazil,CAW,SBCP,-21.69829941,-41.30170059,17,-3,S,America/Sao_Paulo,-21.69829941,-41.30170059
2551,Eduardo Gomes International Airport,Manaus,Brazil,MAO,SBEG,-3.038609982,-60.04970169,80,-4,S,America/Boa_Vista,-3.038609982,-60.04970169
2554,Cataratas International Airport,Foz Do Iguacu,Brazil,IGU,SBFI,-25.60027885,-54.48500061,240,-3,S,America/Sao_Paulo,-25.60027885,-54.48500061
2559,Pinto Martins International Airport,Fortaleza,Brazil,FOR,SBFZ,-3.776279926,-38.5326004,25,-3,S,America/Fortaleza,-3.776279926,-38.5326004
2561,Guajará-Mirim Airport,Guajara-mirim,Brazil,GJM,SBGM,-10.78639984,-65.28479767,146,-4,S,America/Boa_Vista,-10.78639984,-65.28479767
2567,Itacoatiara Airport,Itaituba,Brazil,ITA,SBIC,-3.12725997,-58.48120117,43,-4,S,America/Boa_Vista,-3.12725997,-58.48120117
2577,Presidente João Suassuna Airport,Campina Grande,Brazil,CPV,SBKG,-7.26992,-35.8964,502,-3,S,America/Fortaleza,-7.26992,-35.8964
2578,Viracopos International Airport,Campinas,Brazil,VCP,SBKP,-23.00740051,-47.1344986,661,-3,S,America/Sao_Paulo,-23.00740051,-47.1344986
2580,Lins Airport,Lins,Brazil,LIP,SBLN,-21.66399956,-49.73049927,475,-3,S,America/Sao_Paulo,-21.66399956,-49.73049927
2587,Mário Ribeiro Airport,Montes Claros,Brazil,MOC,SBMK,-16.70689964,-43.81890106,668,-3,S,America/Sao_Paulo,-16.70689964,-43.81890106
2591,Alberto Alcolumbre Airport,Macapa,Brazil,MCP,SBMQ,0.050664,-51.07220078,17,-3,S,America/Fortaleza,0.050664,-51.07220078
2593,Campo de Marte Airport,Sao Paulo,Brazil,0,SBMT,-23.50909996,-46.63779831,722,-3,S,America/Sao_Paulo,-23.50909996,-46.63779831
2595,Ministro Victor Konder International Airport,Navegantes,Brazil,NVT,SBNF,-26.879999,-48.651402,5,-3,S,America/Sao_Paulo,-26.879999,-48.651402
2602,Lauro Kurtz Airport,Passo Fundo,Brazil,PFB,SBPF,-28.243999,-52.326599,724,-3,S,America/Sao_Paulo,-28.243999,-52.326599
2610,Guararapes - Gilberto Freyre International Airport,Recife,Brazil,REC,SBRF,-8.126489639,-34.92359924,10,-3,S,America/Fortaleza,-8.126489639,-34.92359924
2612,Santos Dumont Airport,Rio De Janeiro,Brazil,SDU,SBRJ,-22.91049957,-43.1631012,3,-3,S,America/Sao_Paulo,-22.91049957,-43.1631012
2616,Marechal Cunha Machado International Airport,Sao Luis,Brazil,SLZ,SBSL,-2.58536005,-44.23410034,54,-3,S,America/Fortaleza,-2.58536005,-44.23410034
2620,Base Aérea de Santos Airport,Santos,Brazil,SSZ,SBST,-23.92805672,-46.29972076,3,-3,S,America/Sao_Paulo,-23.92805672,-46.29972076
2621,Deputado Luiz Eduardo Magalhães International Airport,Salvador,Brazil,SSA,SBSV,-12.9086113,-38.32249832,20,-3,S,America/Fortaleza,-12.9086113,-38.32249832
2622,Trombetas Airport,Oriximina,Brazil,TMT,SBTB,-1.489599943,-56.39680099,87,-3,S,America/Belem,-1.489599943,-56.39680099
2624,Tefé Airport,Tefe,Brazil,TFF,SBTF,-3.382940054,-64.72409821,57,-4,S,America/Boa_Vista,-3.382940054,-64.72409821
2632,Rubem Berta Airport,Uruguaiana,Brazil,URG,SBUG,-29.78219986,-57.03820038,78,-3,S,America/Sao_Paulo,-29.78219986,-57.03820038
2633,Ten. Cel. Aviador César Bombonato Airport,Uberlandia,Brazil,UDI,SBUL,-18.883612,-48.225277,943,-3,S,America/Sao_Paulo,-18.883612,-48.225277
2638,Eurico de Aguiar Salles Airport,Vitoria,Brazil,VIX,SBVT,-20.258057,-40.286388,3,-3,S,America/Sao_Paulo,-20.258057,-40.286388
2643,El Bosque Airport,Santiago,Chile,0,SCBQ,-33.5617981,-70.68840027,562,-4,S,America/Santiago,-33.5617981,-70.68840027
2645,El Loa Airport,Calama,Chile,CJC,SCCF,-22.49819946,-68.9036026,2299,-4,S,America/Santiago,-22.49819946,-68.9036026
2647,Pdte. Carlos Ibañez del Campo Airport,Punta Arenas,Chile,PUQ,SCCI,-53.002602,-70.854599,42,-4,S,America/Santiago,-53.002602,-70.854599
2659,Vallenar Airport,Vallenar,Chile,VLR,SCLL,-28.59639931,-70.7559967,526,-4,S,America/Santiago,-28.59639931,-70.7559967
2660,De La Independencia Airport,Rancagua,Chile,QRC,SCRG,-34.17369843,-70.77570343,441,-4,S,America/Santiago,-34.17369843,-70.77570343
2664,Maquehue Airport,Temuco,Chile,PZS,SCTC,-38.76679993,-72.63710022,93,-4,S,America/Santiago,-38.76679993,-72.63710022
2673,José Joaquín de Olmedo International Airport,Guayaquil,Ecuador,GYE,SEGU,-2.15741992,-79.88359833,6,-5,U,America/Guayaquil,-2.15741992,-79.88359833
2676,Km 192 Airport,Km-192,Ecuador,0,SEKK,0.184202999,-79.39199829,380,-5,U,America/Guayaquil,0.184202999,-79.39199829
2677,Hacienda La Julia Airport,La Julia,Ecuador,0,SELJ,-1.704380035,-79.5522995,15,-5,U,America/Guayaquil,-1.704380035,-79.5522995
2679,Jose Maria Velasco Ibarra Airport,Macara,Ecuador,MRR,SEMA,-4.378230095,-79.94100189,460,-5,U,America/Guayaquil,-4.378230095,-79.94100189
2683,Eloy Alfaro International Airport,Manta,Ecuador,MEC,SEMT,-0.946078002,-80.67880249,15,-5,U,America/Guayaquil,-0.946078002,-80.67880249
2686,Reales Tamarindos Airport,Portoviejo,Ecuador,PVO,SEPV,-1.041650057,-80.47219849,40,-5,U,America/Guayaquil,-1.041650057,-80.47219849
2689,Chimborazo Airport,Riobamba,Ecuador,0,SERB,-1.653429985,-78.65609741,2789,-5,U,America/Guayaquil,-1.653429985,-78.65609741
2691,General Ulpiano Paez Airport,Salinas,Ecuador,SNC,SESA,-2.20499,-80.988899,5,-5,U,America/Guayaquil,-2.20499,-80.988899
2692,Santo Domingo de Los Colorados Airport,Santo Domingo,Ecuador,0,SESD,-0.248221993,-79.21440125,522,-5,U,America/Guayaquil,-0.248221993,-79.21440125
2695,Mayor Galo Torres Airport,Tena,Ecuador,0,SETE,-0.986766994,-77.81950378,521,-5,U,America/Guayaquil,-0.986766994,-77.81950378
2700,Juan De Ayolas Airport,Ayolas,Paraguay,AYO,SGAY,-27.370554,-56.854064,68,-4,S,America/Asuncion,-27.370554,-56.854064
2705,El Eden Airport,Armenia,Colombia,AXM,SKAR,4.45278,-75.7664,1216,-5,U,America/Bogota,4.45278,-75.7664
2709,El Dorado International Airport,Bogota,Colombia,BOG,SKBO,4.70159,-74.1469,2548,-5,U,America/Bogota,4.70159,-74.1469
2713,Camilo Daza International Airport,Cucuta,Colombia,CUC,SKCC,7.92757,-72.5115,334,-5,U,America/Bogota,7.92757,-72.5115
2717,Las Brujas Airport,Corozal,Colombia,CZU,SKCZ,9.33274,-75.2856,161,-5,U,America/Bogota,9.33274,-75.2856
2719,Gustavo Artunduaga Paredes Airport,Florencia,Colombia,FLA,SKFL,1.58919,-75.5644,245,-5,U,America/Bogota,1.58919,-75.5644
2720,Santiago Vila Airport,Girardot,Colombia,GIR,SKGI,4.27624,-74.7967,274,-5,U,America/Bogota,4.27624,-74.7967
2726,Antonio Roldan Betancourt Airport,Carepa,Colombia,APO,SKLC,7.81196,-76.7164,14,-5,U,America/Bogota,7.81196,-76.7164
2731,Los Garzones Airport,Monteria,Colombia,MTR,SKMR,8.82374,-75.8258,11,-5,U,America/Bogota,8.82374,-75.8258
2735,Aguas Claras Airport,Ocana,Colombia,OCV,SKOC,8.31506,-73.3583,1173,-5,U,America/Bogota,8.31506,-73.3583
2736,Otu Airport,Otu,Colombia,OTU,SKOT,7.01037,-74.7155,628,-5,U,America/Bogota,7.01037,-74.7155
2740,Pitalito Airport,Pitalito,Colombia,PTX,SKPI,1.85777,-76.0857,1284,-5,U,America/Bogota,1.85777,-76.0857
2742,Antonio Narino Airport,Pasto,Colombia,PSO,SKPS,1.39625,-77.2915,1814,-5,U,America/Bogota,1.39625,-77.2915
2744,Mariquita Airport,Mariquita,Colombia,MQU,SKQU,5.21256,-74.8836,467,-5,U,America/Bogota,5.21256,-74.8836
2747,Jorge E. Gonzalez Torres Airport,San Jose Del Guaviare,Colombia,SJE,SKSJ,2.57969,-72.6394,184,-5,U,America/Bogota,2.57969,-72.6394
2752,Santiago Perez Airport,Arauca,Colombia,AUC,SKUC,7.06888,-70.7369,128,-5,U,America/Bogota,7.06888,-70.7369
2754,Heriberto Gíl Martínez Airport,Tulua,Colombia,ULQ,SKUL,4.08836,-76.2351,955,-5,U,America/Bogota,4.08836,-76.2351
2756,Vanguardia Airport,Villavicencio,Colombia,VVC,SKVV,4.16787,-73.6138,425,-5,U,America/Bogota,4.16787,-73.6138
2758,Bermejo Airport,Bermejo,Bolivia,BJO,SLBJ,-22.77330017,-64.31289673,381,-4,U,America/La_Paz,-22.77330017,-64.31289673
2760,Chimore Airport,Chapacura,Bolivia,CCA,SLCH,-16.976834,-65.145568,267,-4,U,America/La_Paz,-16.976834,-65.145568
2764,Capitan Nicolas Rojas Airport,Potosi,Bolivia,POI,SLPO,-19.54310036,-65.72370148,3936,-4,U,America/La_Paz,-19.54310036,-65.72370148
2767,Juana Azurduy De Padilla Airport,Sucre,Bolivia,SRE,SLSU,-19.00709915,-65.28869629,2908,-4,U,America/La_Paz,-19.00709915,-65.28869629
2771,Viru Viru International Airport,Santa Cruz,Bolivia,VVI,SLVR,-17.6448,-63.135399,373,-4,U,America/La_Paz,-17.6448,-63.135399
2773,Johan Adolf Pengel International Airport,Zandery,Suriname,PBM,SMJP,5.452829838,-55.18780136,18,-3,U,America/Paramaribo,5.452829838,-55.18780136
2777,Alferez FAP Alfredo Vladimir Sara Bauer Airport,Andoas,Peru,AOP,SPAS,-2.796129942,-76.46659851,222,-5,U,America/Lima,-2.796129942,-76.46659851
2780,Iberia Airport,Iberia,Peru,IBP,SPBR,-11.41160011,-69.48870087,229,-5,U,America/Lima,-11.41160011,-69.48870087
2784,Cesar Torke Podesta Airport,Moquegua,Peru,0,SPEQ,-17.17900085,-70.93080139,1365,-5,U,America/Lima,-17.17900085,-70.93080139
2785,Capitan FAP Jose A Quinones Gonzales International Airport,Chiclayo,Peru,CIX,SPHI,-6.787479877,-79.82810211,30,-5,U,America/Lima,-6.787479877,-79.82810211
2786,Coronel FAP Alfredo Mendivil Duarte Airport,Ayacucho,Peru,AYP,SPHO,-13.15480042,-74.20439911,2718,-5,U,America/Lima,-13.15480042,-74.20439911
2787,Andahuaylas Airport,Andahuaylas,Peru,ANS,SPHY,-13.70639992,-73.35040283,3444,-5,U,America/Lima,-13.70639992,-73.35040283
2792,Inca Manco Capac International Airport,Juliaca,Peru,JUL,SPJL,-15.46710014,-70.15820313,3826,-5,U,America/Lima,-15.46710014,-70.15820313
2796,Capitan FAP Pedro Canga Rodriguez Airport,Tumbes,Peru,TBP,SPME,-3.55253005,-80.38140106,35,-5,U,America/Lima,-3.55253005,-80.38140106
2797,Moises Benzaquen Rengifo Airport,Yurimaguas,Peru,YMS,SPMS,-5.893770218,-76.11820221,179,-5,U,America/Lima,-5.893770218,-76.11820221
2799,Collique Airport,Collique,Peru,0,SPOL,-11.92870045,-77.06109619,125,-5,U,America/Lima,-11.92870045,-77.06109619
2806,Cadete FAP Guillermo Del Castillo Paredes Airport,Tarapoto,Peru,TPP,SPST,-6.508739948,-76.37319946,265,-5,U,America/Lima,-6.508739948,-76.37319946
2809,Capitán FAP Guillermo Concha Iberico International Airport,Piura,Peru,PIU,SPUR,-5.205749989,-80.61640167,37,-5,U,America/Lima,-5.205749989,-80.61640167
2821,General José Antonio Anzoategui International Airport,Barcelona,Venezuela,BLA,SVBC,10.111111,-64.692222,9,-4,U,America/Caracas,10.111111,-64.692222
2827,Caicara del Orinoco Airport,Caicara De Orinoco,Venezuela,CXA,SVCD,7.625510216,-66.16280365,43,-4,U,America/Caracas,7.625510216,-66.16280365
2828,San Carlos Airport,San Carlos,Venezuela,0,SVCJ,9.647720337,-68.5746994,156,-4,U,America/Caracas,9.647720337,-68.5746994
2829,Calabozo Airport,Calabozo,Venezuela,CLZ,SVCL,8.924655914,-67.41709137,100,-4,U,America/Caracas,8.924655914,-67.41709137
2831,Carora Airport,Carora,Venezuela,VCR,SVCO,10.17560291,-70.06521606,438,-4,U,America/Caracas,10.17560291,-70.06521606
2832,General Francisco Bermúdez Airport,Carupano,Venezuela,CUP,SVCP,10.66001415,-63.2616806,10,-4,U,America/Caracas,10.66001415,-63.2616806
2834,Oscar Machado Zuluaga Airport,Caracas,Venezuela,0,SVCS,10.28611088,-66.8161087,654,-4,U,America/Caracas,10.28611088,-66.8161087
2836,Capitán Manuel Ríos Airbase,Carrizal,Venezuela,0,SVCZ,9.372650146,-66.92279816,181,-4,U,America/Caracas,9.372650146,-66.92279816
2841,Guanare Airport,Guanare,Venezuela,GUQ,SVGU,9.02694416,-69.75514984,185,-4,U,America/Caracas,9.02694416,-69.75514984
2842,Higuerote Airport,Higuerote,Venezuela,HGE,SVHG,10.462474,-66.092779,4,-4,U,America/Caracas,10.462474,-66.092779
2843,Andrés Miguel Salazar Marcano Airport,Isla De Coche,Venezuela,ICC,SVIE,10.794432,-63.98159,3,-4,U,America/Caracas,10.794432,-63.98159
2844,Josefa Camejo International Airport,Paraguana,Venezuela,LSP,SVJC,11.78077507,-70.15149689,23,-4,U,America/Caracas,11.78077507,-70.15149689
2846,La Fria Airport,La Fria,Venezuela,LFR,SVLF,8.239167213,-72.27102661,93,-4,U,America/Caracas,8.239167213,-72.27102661
2847,La Orchila Airport,La Orchila,Venezuela,0,SVLO,11.80720043,-66.17960358,2,-4,U,America/Caracas,11.80720043,-66.17960358
2852,Maturín Airport,Maturin,Venezuela,MUN,SVMT,9.754529953,-63.1473999,68,-4,U,America/Caracas,9.754529953,-63.1473999
2855,Paramillo Airport,San Cristobal,Venezuela,SCI,SVPM,7.801320076,-72.20290375,1010,-4,U,America/Caracas,7.801320076,-72.20290375
2858,San Antonio Del Tachira Airport,San Antonio,Venezuela,SVZ,SVSA,7.840829849,-72.43969727,400,-4,U,America/Caracas,7.840829849,-72.43969727
2860,Santa Elena de Uairen Airport,Santa Ana De Uairen,Venezuela,SNV,SVSE,4.554999828,-61.15000153,895,-4,U,America/Caracas,4.554999828,-61.15000153
2861,Mayor Buenaventura Vivas International Airport,Santo Domingo,Venezuela,STD,SVSO,7.56538,-72.035103,330,-4,U,America/Caracas,7.56538,-72.035103
2862,Sub Teniente Nestor Arias Airport,San Felipe,Venezuela,SNF,SVSP,10.2787,-68.755203,232,-4,U,America/Caracas,10.2787,-68.755203
2863,San Fernando De Apure Airport,San Fernando De Apure,Venezuela,SFD,SVSR,7.883319855,-67.44400024,47,-4,U,America/Caracas,7.883319855,-67.44400024
2864,San Tomé Airport,San Tome,Venezuela,SOM,SVST,8.945146561,-64.1510849,262,-4,U,America/Caracas,8.945146561,-64.1510849
2865,Santa Bárbara del Zulia Airport,Santa Barbara,Venezuela,STB,SVSZ,8.974550247,-71.94325256,10,-4,U,America/Caracas,8.974550247,-71.94325256
2867,Tumeremo Airport,Tumeremo,Venezuela,TMO,SVTM,7.24938,-61.52893,105,-4,U,America/Caracas,7.24938,-61.52893
2874,V.C. Bird International Airport,Antigua,Antigua and Barbuda,ANU,TAPA,17.1367,-61.792702,19,-4,U,America/Antigua,17.1367,-61.792702
2877,Douglas-Charles Airport,Dominica,Dominica,DOM,TDPD,15.547,-61.299999,22,-4,U,America/Dominica,15.547,-61.299999
2879,L'Espérance Airport,St. Martin,Guadeloupe,SFG,TFFG,18.09989929,-63.04719925,2,-4,U,0,18.09989929,-63.04719925
2881,Pointe-à-Pitre Le Raizet,Pointe-a-pitre,Guadeloupe,PTP,TFFR,16.265301,-61.531799,11,-4,U,America/Guadeloupe,16.265301,-61.531799
2884,Henry E Rohlsen Airport,St. Croix Island,Virgin Islands,STX,TISX,17.70190048,-64.79859924,23,-4,U,America/St_Thomas,17.70190048,-64.79859924
2885,Rafael Hernandez Airport,Aguadilla,Puerto Rico,BQN,TJBQ,18.49489975,-67.12940216,72,-4,U,America/Puerto_Rico,18.49489975,-67.12940216
2886,Diego Jimenez Torres Airport,Fajardo,Puerto Rico,FAJ,TJFA,18.30890083,-65.66190338,20,-4,U,America/Puerto_Rico,18.30890083,-65.66190338
2888,Eugenio Maria De Hostos Airport,Mayaguez,Puerto Rico,MAZ,TJMZ,18.25569916,-67.14849854,9,-4,U,America/Puerto_Rico,18.25569916,-67.14849854
2891,Robert L. Bradshaw International Airport,Basse Terre,Saint Kitts and Nevis,SKB,TKPK,17.31119919,-62.71870041,52,-4,U,America/St_Kitts,17.31119919,-62.71870041
2897,Hato International Airport,Willemstad,Netherlands Antilles,CUR,TNCC,12.1889,-68.959801,9,-4,U,America/Curacao,12.1889,-68.959801
2898,F. D. Roosevelt Airport,Oranjestad,Netherlands Antilles,EUX,TNCE,17.49650002,-62.97940063,39,-4,U,America/Curacao,17.49650002,-62.97940063
2907,Argyle International Airport,Kingstown,Saint Vincent and the Grenadines,SVD,TVSA,13.156695,-61.149945,41,-4,U,America/St_Vincent,13.156695,-61.149945
2908,Almaty Airport,Alma-ata,Kazakhstan,ALA,UAAA,43.35210037,77.04049683,681,6,U,Asia/Qyzylorda,43.35210037,77.04049683
2912,Manas International Airport,Bishkek,Kyrgyzstan,FRU,UAFM,43.06129837,74.4776001,627,6,U,Asia/Bishkek,43.06129837,74.4776001
2917,Pavlodar Airport,Pavlodar,Kazakhstan,PWQ,UASP,52.19499969,77.07389832,125,6,U,Asia/Qyzylorda,52.19499969,77.07389832
2923,Yakutsk Airport,Yakutsk,Russia,YKS,UEEE,62.09329987,129.7709961,99,9,N,Asia/Yakutsk,62.09329987,129.7709961
2925,Mirny Airport,Mirnyj,Russia,MJZ,UERR,62.53469849,114.0390015,352,9,N,Asia/Yakutsk,62.53469849,114.0390015
2926,Ignatyevo Airport,Blagoveschensk,Russia,BQS,UHBB,50.42539978,127.4120026,194,9,N,Asia/Yakutsk,50.42539978,127.4120026
2927,Khabarovsk-Novy Airport,Khabarovsk,Russia,KHV,UHHH,48.52799988,135.1880035,74,10,N,Asia/Vladivostok,48.52799988,135.1880035
2929,Provideniya Bay Airport,Provideniya Bay,Russia,PVS,UHMD,64.37809753,-173.2429962,22,12,N,Asia/Anadyr,64.37809753,-173.2429962
2932,Yelizovo Airport,Petropavlovsk,Russia,PKC,UHPP,53.16790009,158.4539948,40,12,N,Asia/Anadyr,53.16790009,158.4539948
2933,Yuzhno-Sakhalinsk Airport,Yuzhno-sakhalinsk,Russia,UUS,UHSS,46.88869858,142.7180023,18,11,N,Asia/Srednekolymsk,46.88869858,142.7180023
2941,Dnipropetrovsk International Airport,Dnepropetrovsk,Ukraine,DNK,UKDD,48.35720062,35.1006012,147,2,E,Europe/Kiev,48.35720062,35.1006012
2945,Lviv International Airport,Lvov,Ukraine,LWO,UKLL,49.8125,23.95610046,326,2,E,Europe/Kiev,49.8125,23.95610046
2948,Pulkovo Airport,St. Petersburg,Russia,LED,ULLI,59.8003006,30.26250076,24,3,N,Europe/Moscow,59.8003006,30.26250076
2949,Murmansk Airport,Murmansk,Russia,MMK,ULMM,68.78170013,32.75080109,81,3,N,Europe/Moscow,68.78170013,32.75080109
2950,Gomel Airport,Gomel,Belarus,GME,UMGG,52.52700043,31.01670074,144,3,E,Europe/Minsk,52.52700043,31.01670074
2951,Vitebsk Vostochny Airport,Vitebsk,Belarus,VTB,UMII,55.12649918,30.34959984,208,3,E,Europe/Minsk,55.12649918,30.34959984
2956,Barnaul Airport,Barnaul,Russia,BAX,UNBB,53.36380005,83.53849792,255,7,N,Asia/Krasnoyarsk,53.36380005,83.53849792
2957,Kemerovo Airport,Kemorovo,Russia,KEJ,UNEE,55.27009964,86.10720062,263,7,N,Asia/Krasnoyarsk,55.27009964,86.10720062
2960,Krasnodar Pashkovsky International Airport,Krasnodar,Russia,KRR,URKK,45.03469849,39.17050171,36,3,N,Europe/Moscow,45.03469849,39.17050171
2961,Uytash Airport,Makhachkala,Russia,MCX,URML,42.81679916,47.65230179,4,3,N,Europe/Moscow,42.81679916,47.65230179
2973,Bolshoye Savino Airport,Perm,Russia,PEE,USPP,57.91450119,56.02119827,123,5,N,Asia/Yekaterinburg,57.91450119,56.02119827
2976,Ashgabat International Airport,Ashkhabad,Turkmenistan,ASB,UTAA,37.986801,58.361,211,5,U,Asia/Ashgabat,37.986801,58.361
2978,Turkmenabat Airport,Chardzhou,Turkmenistan,CRZ,UTAV,39.08330154,63.61330032,192,5,U,Asia/Ashgabat,39.08330154,63.61330032
2983,Tashkent International Airport,Tashkent,Uzbekistan,TAS,UTTT,41.25790024,69.28119659,432,5,U,Asia/Samarkand,41.25790024,69.28119659
2988,Vnukovo International Airport,Moscow,Russia,VKO,UUWW,55.59149933,37.26150131,209,3,N,Europe/Moscow,55.59149933,37.26150131
2989,Syktyvkar Airport,Syktyvkar,Russia,SCW,UUYY,61.64699936,50.8451004,104,3,N,Europe/Moscow,61.64699936,50.8451004
2994,Sardar Vallabhbhai Patel International Airport,Ahmedabad,India,AMD,VAAH,23.07719994,72.63469696,58,5.5,N,Asia/Calcutta,23.07719994,72.63469696
2995,Akola Airport,Akola,India,AKD,VAAK,20.698999,77.058601,304,5.5,N,Asia/Calcutta,20.698999,77.058601
2998,Bilaspur Airport,Bilaspur,India,PAB,VABI,21.9884,82.111,274,5.5,N,Asia/Calcutta,21.9884,82.111
2999,Bhuj Airport,Bhuj,India,BHJ,VABJ,23.28779984,69.67019653,82,5.5,N,Asia/Calcutta,23.28779984,69.67019653
3000,Belgaum Airport,Belgaum,India,IXG,VABM,15.85929966,74.61830139,758,5.5,N,Asia/Calcutta,15.85929966,74.61830139
3015,Dr. Babasaheb Ambedkar International Airport,Nagpur,India,NAG,VANP,21.09219933,79.04720306,315,5.5,N,Asia/Calcutta,21.09219933,79.04720306
3017,Pune Airport,Pune,India,PNQ,VAPO,18.58209991,73.91970062,592,5.5,N,Asia/Calcutta,18.58209991,73.91970062
3020,Raipur Airport,Raipur,India,RPR,VARP,21.180401,81.7388,317,5.5,N,Asia/Calcutta,21.180401,81.7388
3021,Solapur Airport,Sholapur,India,SSE,VASL,17.62800026,75.93479919,483,5.5,N,Asia/Calcutta,17.62800026,75.93479919
3026,Batticaloa Airport,Batticaloa,Sri Lanka,BTC,VCCB,7.70576,81.678802,6,5.5,U,Asia/Colombo,7.70576,81.678802
3027,Colombo Ratmalana Airport,Colombo,Sri Lanka,RML,VCCC,6.821990013,79.88619995,7,5.5,U,Asia/Colombo,6.821990013,79.88619995
3033,Kampong Chhnang Airport,Kompong Chnang,Cambodia,KZC,VDKH,12.25520039,104.564003,17,7,U,Asia/Phnom_Penh,12.25520039,104.564003
3034,Phnom Penh International Airport,Phnom-penh,Cambodia,PNH,VDPP,11.54660034,104.8440018,12,7,U,Asia/Phnom_Penh,11.54660034,104.8440018
3035,Siem Reap International Airport,Siem-reap,Cambodia,REP,VDSR,13.41069984,103.8130035,18,7,U,Asia/Phnom_Penh,13.41069984,103.8130035
3039,Lengpui Airport,Aizwal,India,AJL,VELP,23.84059906,92.61969757,426,5.5,N,Asia/Calcutta,23.84059906,92.61969757
3045,Dhanbad Airport,Dhanbad,India,DBD,VEDB,23.83399963,86.4253006,258,5.5,N,Asia/Calcutta,23.83399963,86.4253006
3049,Hirakud Airport,Hirakud,India,0,VEHK,21.5802002,84.00569916,201,5.5,N,Asia/Calcutta,21.5802002,84.00569916
3050,Imphal Airport,Imphal,India,IMF,VEIM,24.76000023,93.896698,774,5.5,N,Asia/Calcutta,24.76000023,93.896698
3051,Jharsuguda Airport,Jharsuguda,India,0,VEJH,21.91349983,84.05039978,229,5.5,N,Asia/Calcutta,21.91349983,84.05039978
3052,Sonari Airport,Jamshedpur,India,IXW,VEJS,22.8132,86.1688,145,5.5,N,Asia/Calcutta,22.8132,86.1688
3061,Lok Nayak Jayaprakash Airport,Patina,India,PAT,VEPT,25.59129906,85.08799744,52,5.5,N,Asia/Calcutta,25.59129906,85.08799744
3067,Ziro Airport,Zero,India,ZER,VEZO,27.588301,93.828102,1647,5.5,N,Asia/Calcutta,27.588301,93.828102
3073,Saidpur Airport,Saidpur,Bangladesh,SPD,VGSD,25.75919914,88.9088974,38,6,U,Asia/Dhaka,25.75919914,88.9088974
3075,Tejgaon Airport,Dhaka,Bangladesh,0,VGTJ,23.77879906,90.38269806,7,6,U,Asia/Dhaka,23.77879906,90.38269806
3077,Hong Kong International Airport,Hong Kong,Hong Kong,HKG,VHHH,22.308901,113.915001,9,8,U,Asia/Hong_Kong,22.308901,113.915001
3081,Sri Guru Ram Dass Jee International Airport,Amritsar,India,ATQ,VIAR,31.70960045,74.79730225,230,5.5,N,Asia/Calcutta,31.70960045,74.79730225
3083,Bakshi Ka Talab Air Force Station,Bakshi Ka Talab,India,0,VIBL,26.98830032,80.89309692,117,5.5,N,Asia/Calcutta,26.98830032,80.89309692
3085,Kullu Manali Airport,Kulu,India,KUU,VIBR,31.87669945,77.15440369,1089,5.5,N,Asia/Calcutta,31.87669945,77.15440369
3089,Chandigarh Airport,Chandigarh,India,IXC,VICG,30.67350006,76.78849792,308,5.5,N,Asia/Calcutta,30.67350006,76.78849792
3091,Safdarjung Airport,Delhi,India,0,VIDD,28.58449936,77.20580292,215,5.5,N,Asia/Calcutta,28.58449936,77.20580292
3092,Dehradun Airport,Dehra Dun,India,DED,VIDN,30.189699,78.180298,558,5.5,N,Asia/Calcutta,30.189699,78.180298
3095,Hissar Airport,Hissar,India,HSS,VIHR,29.17939949,75.75530243,213,5.5,N,Asia/Calcutta,29.17939949,75.75530243
3096,Jhansi Airport,Jhansi,India,0,VIJN,25.49119949,78.55840302,244,5.5,N,Asia/Calcutta,25.49119949,78.55840302
3097,Jodhpur Airport,Jodhpur,India,JDH,VIJO,26.25110054,73.04889679,219,5.5,N,Asia/Calcutta,26.25110054,73.04889679
3105,Chaudhary Charan Singh International Airport,Lucknow,India,LKO,VILK,26.76059914,80.88929749,125,5.5,N,Asia/Calcutta,26.76059914,80.88929749
3106,Pathankot Airport,Pathankot,India,IXP,VIPK,32.233611,75.634444,310,5.5,N,Asia/Calcutta,32.233611,75.634444
3107,Patiala Airport,Patiala,India,0,VIPL,30.31480026,76.36450195,250,5.5,N,Asia/Calcutta,30.31480026,76.36450195
3115,Luang Phabang International Airport,Luang Prabang,Laos,LPQ,VLLB,19.89730072,102.1610031,291,7,U,Asia/Vientiane,19.89730072,102.1610031
3119,Sam Neua Airport,Sam Neua,Laos,NEU,VLSN,20.41839981,104.0670013,1000,7,U,Asia/Vientiane,20.41839981,104.0670013
3124,Janakpur Airport,Janakpur,Nepal,JKR,VNJP,26.70879936,85.92240143,78,5.75,N,Asia/Katmandu,26.70879936,85.92240143
3130,Agatti Airport,Agatti Island,India,AGX,VOAT,10.82369995,72.1760025,4,5.5,N,Asia/Calcutta,10.82369995,72.1760025
3131,Kempegowda International Airport,Bangalore,India,BLR,VOBL,13.1979,77.706299,914,5.5,N,Asia/Calcutta,13.1979,77.706299
3142,Madurai Airport,Madurai,India,IXM,VOMD,9.83450985,78.09339905,140,5.5,N,Asia/Calcutta,9.83450985,78.09339905
3145,Nagarjuna Sagar Airport,Nagarjunsagar,India,0,VONS,16.54269981,79.3187027,201,5.5,N,Asia/Calcutta,16.54269981,79.3187027
3146,Vir Savarkar International Airport,Port Blair,India,IXZ,VOPB,11.64120007,92.72969818,4,5.5,N,Asia/Calcutta,11.64120007,92.72969818
3150,Tanjore Air Force Base,Tanjore,India,TJV,VOTJ,10.72239971,79.10160065,77,5.5,N,Asia/Calcutta,10.72239971,79.10160065
3155,Paro Airport,Thimphu,Bhutan,PBH,VQPR,27.40320015,89.42459869,2235,6,N,Asia/Thimphu,27.40320015,89.42459869
3156,Malé International Airport,Male,Maldives,MLE,VRMM,4.191830158,73.52909851,2,5,U,Indian/Maldives,4.191830158,73.52909851
3158,Kamphaeng Saen Airport,Nakhon Pathom,Thailand,KDT,VTBK,14.10200024,99.91719818,9,7,U,Asia/Bangkok,14.10200024,99.91719818
3159,Khok Kathiam Airport,Lop Buri,Thailand,0,VTBL,14.87460041,100.663002,37,7,U,Asia/Bangkok,14.87460041,100.663002
3162,Watthana Nakhon Airport,Prachin Buri,Thailand,0,VTBW,13.76879978,102.3150024,61,7,U,Asia/Bangkok,13.76879978,102.3150024
3165,Hua Hin Airport,Prachuap Khiri Khan,Thailand,HHQ,VTPH,12.63619995,99.95149994,19,7,U,Asia/Bangkok,12.63619995,99.95149994
3166,Takhli Airport,Nakhon Sawan,Thailand,TKH,VTPI,15.27729988,100.2959976,33,7,U,Asia/Bangkok,15.27729988,100.2959976
3167,Sak Long Airport,Phetchabun,Thailand,0,VTPL,16.82430077,101.2509995,152,7,U,Asia/Bangkok,16.82430077,101.2509995
3171,Khunan Phumipol Airport,Tak,Thailand,0,VTPY,17.23419952,99.05789948,150,7,U,Asia/Bangkok,17.23419952,99.05789948
3173,Narathiwat Airport,Narathiwat,Thailand,NAW,VTSC,6.519919872,101.7429962,5,7,U,Asia/Bangkok,6.519919872,101.7429962
3178,Cha Eian Airport,Nakhon Si Thammarat,Thailand,0,VTSN,8.471150398,99.95559692,13,7,U,Asia/Bangkok,8.471150398,99.95559692
3181,Hat Yai International Airport,Hat Yai,Thailand,HDY,VTSS,6.933209896,100.3929977,27,7,U,Asia/Bangkok,6.933209896,100.3929977
3183,Udon Thani Airport,Udon Thani,Thailand,UTH,VTUD,17.38640022,102.788002,176,7,U,Asia/Bangkok,17.38640022,102.788002
3186,Loei Airport,Loei,Thailand,LOE,VTUL,17.43910027,101.7220001,262,7,U,Asia/Bangkok,17.43910027,101.7220001
3187,Khorat Airport,Nakhon Ratchasima,Thailand,0,VTUN,14.93449974,102.0790024,222,7,U,Asia/Bangkok,14.93449974,102.0790024
3199,Noi Bai International Airport,Hanoi,Vietnam,HAN,VVNB,21.22120094,105.8069992,12,7,U,Asia/Saigon,21.22120094,105.8069992
3200,Nha Trang Air Base,Nhatrang,Vietnam,NHA,VVNT,12.2275,109.192001,6,7,U,Asia/Saigon,12.2275,109.192001
3201,Phu Bai Airport,Hue,Vietnam,HUI,VVPB,16.4015007,107.7030029,15,7,U,Asia/Saigon,16.4015007,107.7030029
3207,Ann Airport,Ann,Burma,VBA,VYAN,19.769199,94.0261,23,6.5,U,Asia/Rangoon,19.769199,94.0261
3214,Hommalinn Airport,Hommalin,Burma,HOX,VYHL,24.89959908,94.91400146,163,6.5,U,Asia/Rangoon,24.89959908,94.91400146
3220,Lashio Airport,Lashio,Burma,LSH,VYLS,22.97789955,97.75219727,747,6.5,U,Asia/Rangoon,22.97789955,97.75219727
3221,Lanywa Airport,Lanywa,Burma,0,VYLY,20.94039917,94.82260132,53,6.5,U,Asia/Rangoon,20.94039917,94.82260132
3230,Hpa-N Airport,Hpa-an,Burma,PAA,VYPA,16.89369965,97.67459869,46,6.5,U,Asia/Rangoon,16.89369965,97.67459869
3237,Tachileik Airport,Tachilek,Burma,THL,VYTL,20.48380089,99.93540192,390,6.5,U,Asia/Rangoon,20.48380089,99.93540192
3247,Jalaluddin Airport,Gorontalo,Indonesia,GTO,WAMG,0.637118995,122.8499985,32,8,N,Asia/Makassar,0.637118995,122.8499985
3252,Pitu Airport,Morotai Island,Indonesia,OTI,WAMR,2.04598999,128.3249969,15,9,N,Asia/Jayapura,2.04598999,128.3249969
3260,Rendani Airport,Manokwari,Indonesia,MKW,WASR,-0.891833007,134.048996,7,9,N,Asia/Jayapura,-0.891833007,134.048996
3262,Bintulu Airport,Bintulu,Malaysia,BTU,WBGB,3.123850107,113.0199966,23,8,N,Asia/Kuala_Lumpur,3.123850107,113.0199966
3263,Kuching International Airport,Kuching,Malaysia,KCH,WBGG,1.484699965,110.3470001,27,8,N,Asia/Kuala_Lumpur,1.484699965,110.3470001
3266,Miri Airport,Miri,Malaysia,MYY,WBGR,4.32201004,113.9869995,18,8,N,Asia/Kuala_Lumpur,4.32201004,113.9869995
3267,Sibu Airport,Sibu,Malaysia,SBW,WBGS,2.261600018,111.9850006,37,8,N,Asia/Kuala_Lumpur,2.261600018,111.9850006
3269,Kota Kinabalu International Airport,Kota Kinabalu,Malaysia,BKI,WBKK,5.937210083,116.0510025,3,8,N,Asia/Kuala_Lumpur,5.937210083,116.0510025
3272,Brunei International Airport,Bandar Seri Begawan,Brunei,BWN,WBSB,4.944200039,114.9280014,22,8,U,Asia/Brunei,4.944200039,114.9280014
3274,Pinang Kampai Airport,Dumai,Indonesia,DUM,WIBD,1.60919,101.433998,17,7,N,Asia/Jakarta,1.60919,101.433998
3277,Aek Godang Airport,Padang Sidempuan,Indonesia,AEG,WIME,1.4001,99.430496,281,7,N,Asia/Jakarta,1.4001,99.430496
3278,Minangkabau International Airport,Padang,Indonesia,PDG,WIPT,-0.786917,100.280998,5,7,N,Asia/Jakarta,-0.786917,100.280998
3281,Nanga Pinoh Airport,Nangapinoh,Indonesia,NPO,WIOG,-0.348868996,111.7480011,37,7,N,Asia/Jakarta,-0.348868996,111.7480011
3282,Ketapang(Rahadi Usman) Airport,Ketapang,Indonesia,KTG,WIOK,-1.816640019,109.9629974,14,7,N,Asia/Jakarta,-1.816640019,109.9629974
3284,Supadio Airport,Pontianak,Indonesia,PNK,WIOO,-0.150711,109.4039993,3,7,N,Asia/Jakarta,-0.150711,109.4039993
3287,Sultan Thaha Airport,Jambi,Indonesia,DJB,WIPA,-1.638020039,103.6439972,25,7,N,Asia/Jakarta,-1.638020039,103.6439972
3294,Sultan Iskandar Muda International Airport,Banda Aceh,Indonesia,BTJ,WITT,5.522872024,95.42063713,20,7,N,Asia/Jakarta,5.522872024,95.42063713
3299,Kuantan Airport,Kuantan,Malaysia,KUA,WMKD,3.77538991,103.2089996,18,8,N,Asia/Kuala_Lumpur,3.77538991,103.2089996
3300,Kerteh Airport,Kerteh,Malaysia,KTE,WMKE,4.537220001,103.427002,5,8,N,Asia/Kuala_Lumpur,4.537220001,103.427002
3308,Penang International Airport,Penang,Malaysia,PEN,WMKP,5.297140121,100.2770004,3,8,N,Asia/Kuala_Lumpur,5.297140121,100.2770004
3310,Presidente Nicolau Lobato International Airport,Dili,East Timor,DIL,WPDL,-8.54640007,125.526001,47,9,U,Asia/Dili,-8.54640007,125.526001
3313,Paya Lebar Air Base,Paya Lebar,Singapore,QPG,WSAP,1.360419989,103.9100037,20,8,N,Asia/Singapore,1.360419989,103.9100037
3314,Tengah Air Base,Tengah,Singapore,TGA,WSAT,1.38725996,103.7089996,15,8,N,Asia/Singapore,1.38725996,103.7089996
3316,Singapore Changi Airport,Singapore,Singapore,SIN,WSSS,1.35019,103.994003,7,8,N,Asia/Singapore,1.35019,103.994003
3319,Alice Springs Airport,Alice Springs,Australia,ASP,YBAS,-23.80669975,133.9019928,545,9.5,N,Australia/Darwin,-23.80669975,133.9019928
3322,Cairns International Airport,Cairns,Australia,CNS,YBCS,-16.88579941,145.7550049,3,10,N,Australia/Brisbane,-16.88579941,145.7550049
3324,Mount Isa Airport,Mount Isa,Australia,ISA,YBMA,-20.66390038,139.4889984,342,10,O,Australia/Brisbane,-20.66390038,139.4889984
3325,Sunshine Coast Airport,Maroochydore,Australia,MCY,YBMC,-26.6033,153.091003,5,10,O,Australia/Brisbane,-26.6033,153.091003
3326,Mackay Airport,Mackay,Australia,MKY,YBMK,-21.17169952,149.1799927,6,10,O,Australia/Brisbane,-21.17169952,149.1799927
3328,Proserpine Whitsunday Coast Airport,Prosserpine,Australia,PPP,YBPN,-20.49500084,148.552002,25,10,O,Australia/Brisbane,-20.49500084,148.552002
3332,Avalon Airport,Avalon,Australia,AVV,YMAV,-38.039398,144.468994,11,10,O,Australia/Hobart,-38.039398,144.468994
3333,Albury Airport,Albury,Australia,ABX,YMAY,-36.06779861,146.9579926,164,10,O,Australia/Sydney,-36.06779861,146.9579926
3334,Melbourne Essendon Airport,Melbourne,Australia,MEB,YMEN,-37.7281,144.901993,86,10,O,Australia/Hobart,-37.7281,144.901993
3340,RAAF Williams,,,,,,,,,,,, Point Cook Base;Point Cook;Australia;0;YMPC;-37.932201;144.753006;4;10.0;O;Australia/Hobart;-37.932201
3345,Karratha Airport,Karratha,Australia,KTA,YPKA,-20.71220016,116.7730026,9,8,O,Australia/Perth,-20.71220016,116.7730026
3346,Kalgoorlie Boulder Airport,Kalgoorlie,Australia,KGI,YPKG,-30.7894001,121.461998,367,8,O,Australia/Perth,-30.7894001,121.461998
3349,Port Hedland International Airport,Port Hedland,Australia,PHE,YPPD,-20.37779999,118.6259995,10,8,O,Australia/Perth,-20.37779999,118.6259995
3351,Perth International Airport,Perth,Australia,PER,YPPH,-31.94029999,115.9670029,20,8,N,Australia/Perth,-31.94029999,115.9670029
3353,Christmas Island Airport,Christmas Island,Christmas Island,XCH,YPXM,-10.45059967,105.6900024,279,7,U,Indian/Christmas,-10.45059967,105.6900024
3359,Norfolk Island International Airport,Norfolk Island,Norfolk Island,NLK,YSNF,-29.04159927,167.9389954,113,11,U,Pacific/Norfolk,-29.04159927,167.9389954
3360,RAAF Base Richmond,Richmond,Australia,XRH,YSRI,-33.600601,150.781006,20,10,O,Australia/Sydney,-33.600601,150.781006
3363,Wagga Wagga City Airport,Wagga Wagga,Australia,WGA,YSWG,-35.16529846,147.4660034,221,10,O,Australia/Sydney,-35.16529846,147.4660034
3368,Tianjin Binhai International Airport,Tianjin,China,TSN,ZBTJ,39.12440109,117.3460007,3,8,U,Asia/Shanghai,39.12440109,117.3460007
3372,Guilin Liangjiang International Airport,Guilin,China,KWL,ZGKL,25.21809959,110.0390015,174,8,U,Asia/Shanghai,25.21809959,110.0390015
3377,Pyongyang Sunan International Airport,Pyongyang,North Korea,FNJ,ZKPY,39.224098,125.669998,36,8.5,U,Asia/Pyongyang,39.224098,125.669998
3378,Lanzhou Zhongchuan Airport,Lanzhou,China,LHW,ZLLL,36.51520157,103.6200027,1947,8,U,Asia/Shanghai,36.51520157,103.6200027
3382,Kunming Changshui International Airport,Kunming,China,KMG,ZPPP,25.1019444,102.9291667,2104,8,N,Asia/Shanghai,25.1019444,102.9291667
3390,Liuting Airport,Qingdao,China,TAO,ZSQD,36.26610184,120.3740005,10,8,U,Asia/Shanghai,36.26610184,120.3740005
3391,Shanghai Hongqiao International Airport,Shanghai,China,SHA,ZSSS,31.19790077,121.3359985,3,8,U,Asia/Shanghai,31.19790077,121.3359985
3392,Yantai Laishan Airport,Yantai,China,YNT,ZSYT,37.40169907,121.3720016,18,8,U,Asia/Shanghai,37.40169907,121.3720016
3395,Chengdu Shuangliu International Airport,Chengdu,China,CTU,ZUUU,30.57850075,103.9469986,495,8,U,Asia/Shanghai,30.57850075,103.9469986
3396,Xichang Qingshan Airport,Xichang,China,XIC,ZUXC,27.9890995,102.1839981,1558,8,U,Asia/Shanghai,27.9890995,102.1839981
3397,Kashgar Airport,Kashi,China,KHG,ZWSH,39.54290009,76.01999664,1380,8,U,Asia/Shanghai,39.54290009,76.01999664
3399,Ürümqi Diwopu International Airport,Urumqi,China,URC,ZWWW,43.90710068,87.47419739,648,8,U,Asia/Shanghai,43.90710068,87.47419739
3402,Mudanjiang Hailang International Airport,Mudanjiang,China,MDG,ZYMD,44.52410126,129.5690002,269,8,U,Asia/Shanghai,44.52410126,129.5690002
3407,Pulau Tioman Airport,Tioman,Malaysia,TOD,WMBT,2.818180084,104.1600037,5,8,N,Asia/Kuala_Lumpur,2.818180084,104.1600037
3408,Sultan Abdul Aziz Shah International Airport,Kuala Lumpur,Malaysia,SZB,WMSA,3.130579948,101.5490036,27,8,N,Asia/Kuala_Lumpur,3.130579948,101.5490036
3412,Wainwright Air Station,Fort Wainwright,United States,0,PAWT,70.61340332,-159.8600006,11,-9,A,America/Anchorage,70.61340332,-159.8600006
3417,Bettles Airport,Bettles,United States,BTT,PABT,66.91390228,-151.529007,197,-9,A,America/Anchorage,66.91390228,-151.529007
3418,Clear Airport,Clear Mews,United States,0,PACL,64.301201,-149.119995,168,-9,A,America/Anchorage,64.301201,-149.119995
3421,Sparrevohn LRRS Airport,Sparrevohn,United States,SVW,PASV,61.09740067,-155.5740051,483,-9,A,America/Anchorage,61.09740067,-155.5740051
3422,Bryant Army Heliport,Fort Richardson,United States,FRN,PAFR,61.26639938,-149.6529999,115,-9,A,America/Anchorage,61.26639938,-149.6529999
3424,Cape Romanzof LRRS Airport,Cape Romanzof,United States,CZF,PACZ,61.78030014,-166.0390015,141,-9,A,America/Anchorage,61.78030014,-166.0390015
3427,Cape Newenham LRRS Airport,Cape Newenham,United States,EHM,PAEH,58.64640045,-162.0630035,165,-9,A,America/Anchorage,58.64640045,-162.0630035
3430,Platinum Airport,Port Moller,United States,PTU,PAPM,59.01139832,-161.8200073,5,-9,A,America/Anchorage,59.01139832,-161.8200073
3435,Bicycle Lake Army Air Field,Fort Irwin,United States,BYS,KBYS,35.2804985,-116.6299973,716,-8,A,America/Los_Angeles,35.2804985,-116.6299973
3436,Twentynine Palms (Self) Airport,Twenty Nine Palms,United States,0,KNXP,34.2961998,-116.1620026,625,-8,A,America/Los_Angeles,34.2961998,-116.1620026
3438,Merrill Field,Anchorage,United States,MRI,PAMR,61.21350098,-149.8439941,42,-9,A,America/Anchorage,61.21350098,-149.8439941
3440,Ponca City Regional Airport,Ponca City,United States,PNC,KPNC,36.73199844,-97.09980011,307,-6,A,America/Chicago,36.73199844,-97.09980011
3442,Grand Forks International Airport,Grand Forks,United States,GFK,KGFK,47.949299,-97.176102,258,-6,A,America/Chicago,47.949299,-97.176102
3444,Whiting Field Naval Air Station - North,Milton,United States,NSE,KNSE,30.7241993,-87.02189636,61,-6,A,America/Chicago,30.7241993,-87.02189636
3445,Hana Airport,Hana,United States,HNM,PHHN,20.79560089,-156.0140076,24,-10,A,Pacific/Honolulu,20.79560089,-156.0140076
3449,Travis Air Force Base,Fairfield,United States,SUU,KSUU,38.26269913,-121.927002,19,-8,A,America/Los_Angeles,38.26269913,-121.927002
3452,Mobile Downtown Airport,Mobile,United States,BFM,KBFM,30.62680054,-88.06809998,8,-6,A,America/Chicago,30.62680054,-88.06809998
3458,Kansas City International Airport,Kansas City,United States,MCI,KMCI,39.2976,-94.713898,313,-6,A,America/Chicago,39.2976,-94.713898
3464,Fort Lauderdale Executive Airport,Fort Lauderdale,United States,FXE,KFXE,26.19729996,-80.17070007,4,-5,A,America/New_York,26.19729996,-80.17070007
3468,North Perry Airport,Hollywood,United States,HWO,KHWO,26.0012,-80.2407,2,-5,A,America/New_York,26.0012,-80.2407
3473,Memphis International Airport,Memphis,United States,MEM,KMEM,35.04240036,-89.97669983,104,-6,A,America/Chicago,35.04240036,-89.97669983
3474,Bisbee Douglas International Airport,Douglas,United States,DUG,KDUG,31.46899986,-109.6039963,1266,-7,A,America/Phoenix,31.46899986,-109.6039963
3477,Annette Island Airport,Annette Island,United States,ANN,PANT,55.04240036,-131.5720062,36,-9,A,America/Anchorage,55.04240036,-131.5720062
3481,Pope Field,Fort Bragg,United States,POB,KPOB,35.17089844,-79.01450348,66,-5,A,America/New_York,35.17089844,-79.01450348
3482,Dalhart Municipal Airport,Dalhart,United States,DHT,KDHT,36.02259827,-102.5469971,1216,-6,A,America/Chicago,36.02259827,-102.5469971
3483,DLF Airport,Del Rio,United States,DLF,KDLF,29.359501,-100.778002,330,-6,A,America/Chicago,29.359501,-100.778002
3484,Los Angeles International Airport,Los Angeles,United States,LAX,KLAX,33.94250107,-118.4079971,38,-8,A,America/Los_Angeles,33.94250107,-118.4079971
3485,Anniston Regional Airport,Anniston,United States,ANB,KANB,33.5882,-85.8581,187,-6,A,America/Chicago,33.5882,-85.8581
3495,Boise Air Terminal/Gowen Field,Boise,United States,BOI,KBOI,43.5644,-116.223,875,-7,A,America/Denver,43.5644,-116.223
3496,Creech Air Force Base,Indian Springs,United States,INS,KINS,36.58720016,-115.6729965,955,-8,A,America/Los_Angeles,36.58720016,-115.6729965
3497,Garden City Regional Airport,Garden City,United States,GCK,KGCK,37.92750168,-100.723999,881,-6,A,America/Chicago,37.92750168,-100.723999
3498,Minot International Airport,Minot,United States,MOT,KMOT,48.25939941,-101.2799988,523,-6,A,America/Chicago,48.25939941,-101.2799988
3506,Luke Air Force Base,Phoenix,United States,LUF,KLUF,33.53499985,-112.3830032,331,-7,A,America/Phoenix,33.53499985,-112.3830032
3508,Jack Northrop Field Hawthorne Municipal Airport,Hawthorne,United States,HHR,KHHR,33.922798,-118.334999,20,-8,A,America/Los_Angeles,33.922798,-118.334999
3509,Houlton International Airport,Houlton,United States,HUL,KHUL,46.12310028,-67.792099,149,-5,A,America/New_York,46.12310028,-67.792099
3514,Ellison Onizuka Kona International At Keahole Airport,Kona,United States,KOA,PHKO,19.738783,-156.045603,14,-10,N,Pacific/Honolulu,19.738783,-156.045603
3518,Felker Army Air Field,Fort Eustis,United States,FAF,KFAF,37.13249969,-76.6088028,4,-5,A,America/New_York,37.13249969,-76.6088028
3520,Ronald Reagan Washington National Airport,Washington,United States,DCA,KDCA,38.8521,-77.037697,5,-5,A,America/New_York,38.8521,-77.037697
3522,Palacios Municipal Airport,Palacios,United States,PSX,KPSX,28.72750092,-96.25099945,4,-6,A,America/Chicago,28.72750092,-96.25099945
3523,Arkansas International Airport,Blytheville,United States,BYH,KBYH,35.96429825,-89.94400024,77,-6,A,America/Chicago,35.96429825,-89.94400024
3525,Tinker Air Force Base,Oklahoma City,United States,TIK,KTIK,35.41469955,-97.38659668,393,-6,A,America/Chicago,35.41469955,-97.38659668
3538,Keesler Air Force Base,Biloxi,United States,BIX,KBIX,30.41040039,-88.92440033,10,-6,A,America/Chicago,30.41040039,-88.92440033
3545,Waimea Kohala Airport,Kamuela,United States,MUE,PHMU,20.00130081,-155.6679993,814,-10,A,Pacific/Honolulu,20.00130081,-155.6679993
3547,Hickory Regional Airport,Hickory,United States,HKY,KHKY,35.74110031,-81.38950348,363,-5,A,America/New_York,35.74110031,-81.38950348
3550,George Bush Intercontinental Houston Airport,Houston,United States,IAH,KIAH,29.9843998,-95.34140015,30,-6,A,America/Chicago,29.9843998,-95.34140015
3554,Southern California Logistics Airport,Victorville,United States,VCV,KVCV,34.59749985,-117.3830032,879,-8,A,America/Los_Angeles,34.59749985,-117.3830032
3558,Meadows Field,Bakersfield,United States,BFL,KBFL,35.43360138,-119.0569992,155,-8,A,America/Los_Angeles,35.43360138,-119.0569992
3559,El Paso International Airport,El Paso,United States,ELP,KELP,31.80719948,-106.3779984,1207,-7,A,America/Denver,31.80719948,-106.3779984
3565,Grand Forks Air Force Base,Red River,United States,RDR,KRDR,47.96110153,-97.40119934,278,-6,A,America/Chicago,47.96110153,-97.40119934
3569,"Warren ""Bud"" Woods Palmer Municipal Airport",Palmer,United States,PAQ,PAAQ,61.594898,-149.08901,74,-9,A,America/Anchorage,61.594898,-149.08901
3573,Whidbey Island Naval Air Station (Ault Field),Whidbey Island,United States,NUW,KNUW,48.351799,-122.655998,14,-8,A,America/Los_Angeles,48.351799,-122.655998
3574,Alice International Airport,Alice,United States,ALI,KALI,27.74090004,-98.02690125,54,-6,A,America/Chicago,27.74090004,-98.02690125
3576,Miami International Airport,Miami,United States,MIA,KMIA,25.79319954,-80.29060364,2,-5,A,America/New_York,25.79319954,-80.29060364
3578,Lovell Field,Chattanooga,United States,CHA,KCHA,35.03530121,-85.20379639,208,-5,A,America/New_York,35.03530121,-85.20379639
3579,Igor I Sikorsky Memorial Airport,Stratford,United States,BDR,KBDR,41.16350174,-73.12619781,3,-5,A,America/New_York,41.16350174,-73.12619781
3581,Scholes International At Galveston Airport,Galveston,United States,GLS,KGLS,29.26530075,-94.86039734,2,-6,A,America/Chicago,29.26530075,-94.86039734
3584,Williamsport Regional Airport,Williamsport,United States,IPT,KIPT,41.2417984,-76.9210968,161,-5,A,America/New_York,41.2417984,-76.9210968
3585,Indianapolis International Airport,Indianapolis,United States,IND,KIND,39.7173,-86.294403,243,-5,A,America/New_York,39.7173,-86.294403
3590,Francis S Gabreski Airport,West Hampton Beach,United States,FOK,KFOK,40.84370041,-72.63179779,20,-5,A,America/New_York,40.84370041,-72.63179779
3594,North Island Naval Air Station-Halsey Field,San Diego,United States,NZY,KNZY,32.69919968,-117.2149963,8,-8,A,America/Los_Angeles,32.69919968,-117.2149963
3595,Biggs Army Air Field (Fort Bliss),El Paso,United States,BIF,KBIF,31.84950066,-106.3799973,1203,-7,A,America/Denver,31.84950066,-106.3799973
3597,Cavern City Air Terminal,Carlsbad,United States,CNM,KCNM,32.33750153,-104.2630005,1004,-7,A,America/Denver,32.33750153,-104.2630005
3599,Bethel Airport,Bethel,United States,BET,PABE,60.77980042,-161.8379974,38,-9,A,America/Anchorage,60.77980042,-161.8379974
3603,Terre Haute Regional Airport,,,,,,,,,,,, Hulman Field;Terre Haute;United States;HUF;KHUF;39.4515;-87.307602;180;-5.0;A;America/New_York;39.4515
3607,San Nicolas Island Nolf Airport,San Nicolas Island,United States,0,KNSI,33.2397995,-119.4580002,154,-8,A,America/Los_Angeles,33.2397995,-119.4580002
3608,Richmond International Airport,Richmond,United States,RIC,KRIC,37.50519943,-77.31970215,51,-5,A,America/New_York,37.50519943,-77.31970215
3611,Norfolk International Airport,Norfolk,United States,ORF,KORF,36.89459991,-76.20120239,8,-5,A,America/New_York,36.89459991,-76.20120239
3618,Menominee Regional Airport,Macon,United States,MNM,KMNM,45.126701,-87.638397,190,-6,A,America/Chicago,45.126701,-87.638397
3621,San Antonio International Airport,San Antonio,United States,SAT,KSAT,29.53370094,-98.46980286,247,-6,A,America/Chicago,29.53370094,-98.46980286
3623,Patrick Air Force Base,Coco Beach,United States,COF,KCOF,28.23489952,-80.61009979,2,-5,A,America/New_York,28.23489952,-80.61009979
3631,Coulter Field,Bryan,United States,CFD,KCFD,30.71570015,-96.33139801,112,-6,A,America/Chicago,30.71570015,-96.33139801
3633,Newport News Williamsburg International Airport,Newport News,United States,PHF,KPHF,37.13190079,-76.49299622,13,-5,A,America/New_York,37.13190079,-76.49299622
3634,Esler Regional Airport,Alexandria,United States,ESF,KESF,31.39489937,-92.29579926,34,-6,A,America/Chicago,31.39489937,-92.29579926
3636,Tucson International Airport,Tucson,United States,TUS,KTUS,32.11610031,-110.9410019,806,-7,N,America/Phoenix,32.11610031,-110.9410019
3639,Greater Kankakee Airport,Kankakee,United States,IKK,KIKK,41.07139969,-87.84629822,192,-6,A,America/Chicago,41.07139969,-87.84629822
3646,Tampa International Airport,Tampa,United States,TPA,KTPA,27.97550011,-82.53320313,8,-5,A,America/New_York,27.97550011,-82.53320313
3647,Pembina Municipal Airport,Pembina,United States,PMB,KPMB,48.94250107,-97.24079895,242,-6,A,America/Chicago,48.94250107,-97.24079895
3652,Midland International Airport,Midland,United States,MAF,KMAF,31.94249916,-102.2020035,875,-6,A,America/Chicago,31.94249916,-102.2020035
